City_ID,City,Cloudiness,Country,Date,Humidity,Lat,Lng,Max Temp,Wind Speed,Date
1.0,zhigansk,100.0,RU,1635169954.0,96.0,68.39128520451987,121.98477979431635,268.59,3.43,1635169954.0
2.0,husavik,65.0,IS,1635169954.0,83.0,75.17255637283006,-12.080263638295435,275.1,4.14,1635169954.0
3.0,klaksvik,89.0,FO,1635169817.0,85.0,62.557199099038826,-4.2807205360929,282.66,9.48,1635169817.0
4.0,cape town,0.0,ZA,1635169732.0,52.0,-68.78704835540442,-12.489973323269908,298.77,2.68,1635169732.0
5.0,hobart,90.0,AU,1635169867.0,81.0,-79.72269013660626,144.0195990921831,283.07,1.79,1635169867.0
6.0,kavaratti,32.0,IN,1635169955.0,76.0,13.288847955640904,64.37746432694189,301.25,5.25,1635169955.0
7.0,rosarito,9.0,MX,1635169955.0,88.0,28.636866725117045,-121.3072214440785,289.88,0.05,1635169955.0
8.0,bredasdorp,7.0,ZA,1635169956.0,52.0,-47.16102305664852,19.04247663874054,293.86,7.72,1635169956.0
9.0,chokurdakh,93.0,RU,1635169956.0,100.0,84.95001310382415,153.9638384103348,245.76,0.69,1635169956.0
10.0,yuxia,100.0,CN,1635169956.0,82.0,34.03989791925484,108.01996897976977,286.49,1.75,1635169956.0
11.0,provideniya,55.0,RU,1635169957.0,87.0,53.81995862002549,-177.27973420093798,264.07,3.31,1635169957.0
12.0,soeng sang,34.0,TH,1635169957.0,92.0,14.309965399625796,102.6505926387598,294.62,2.13,1635169957.0
13.0,capitan miranda,0.0,PY,1635169957.0,46.0,-27.20334459761692,-55.64313492262585,295.62,4.12,1635169957.0
14.0,whitianga,73.0,NZ,1635169957.0,98.0,-35.41983538592438,176.19525437604295,288.72,2.23,1635169957.0
15.0,coria,100.0,ES,1635169957.0,30.0,40.58561191313041,-6.544739586771442,295.07,0.75,1635169957.0
16.0,qaanaaq,3.0,GL,1635169958.0,58.0,79.48991948794765,-69.84533135764877,253.56,5.19,1635169958.0
17.0,punta arenas,40.0,CL,1635169819.0,75.0,-87.84090475668964,-92.58949941822459,277.21,13.38,1635169819.0
18.0,sinjar,5.0,IQ,1635169958.0,28.0,35.70025820991499,42.01765717883711,296.08,3.74,1635169958.0
19.0,quelimane,40.0,MZ,1635169958.0,62.0,-21.44552218008633,38.97429051702909,304.12,7.6,1635169958.0
20.0,salalah,80.0,OM,1635169959.0,67.0,11.695017622061329,58.22496644045086,299.73,1.96,1635169959.0
21.0,bluff,100.0,NZ,1635169959.0,93.0,-81.13944129270371,160.4050520212836,284.75,4.36,1635169959.0
22.0,clyde river,90.0,CA,1635169959.0,79.0,67.37844184823993,-70.92582121477324,267.28,2.57,1635169959.0
23.0,norman wells,90.0,CA,1635169960.0,86.0,62.54305741040426,-126.08178857529614,268.17,1.54,1635169960.0
24.0,sakakah,0.0,SA,1635169960.0,18.0,30.087809774020684,41.55163750804539,303.91,0.97,1635169960.0
25.0,ushuaia,90.0,AR,1635169819.0,93.0,-80.77836563694731,-22.65778459180956,274.94,10.29,1635169819.0
26.0,rikitea,100.0,PF,1635169816.0,75.0,-68.6789824493503,-120.1902267252014,296.64,8.12,1635169816.0
27.0,bethel,90.0,US,1635169865.0,93.0,57.015814005961886,-167.68524118621468,292.6,3.6,1635169865.0
28.0,avarua,75.0,CK,1635169960.0,64.0,-63.05352894315716,-165.54145275742565,296.18,3.6,1635169960.0
29.0,barrow,90.0,US,1635169960.0,86.0,81.71224309284696,-162.0300325728897,271.16,5.66,1635169960.0
30.0,kapaa,40.0,US,1635169961.0,97.0,15.315810362242487,-179.9609774823724,296.33,5.14,1635169961.0
31.0,albany,100.0,AU,1635169538.0,95.0,-59.801365392272444,119.24873057346673,287.56,1.18,1635169538.0
32.0,mataura,100.0,PF,1635169864.0,99.0,-70.89785790629985,-152.6217422347305,282.89,0.94,1635169864.0
33.0,vaini,20.0,TO,1635169961.0,83.0,-58.073742477987665,-178.9265569066164,296.24,2.57,1635169961.0
34.0,carnarvon,90.0,AU,1635169961.0,63.0,-23.32382539168941,110.53196450323117,292.19,8.75,1635169961.0
35.0,lebu,46.0,CL,1635169961.0,77.0,-35.659558096693836,-91.71898384125069,286.62,3.82,1635169961.0
36.0,ponta delgada,20.0,PT,1635169962.0,73.0,30.25135708687033,-27.606037256306195,294.55,4.12,1635169962.0
37.0,muros,19.0,ES,1635169962.0,82.0,44.46919561359755,-13.374337112840522,293.7,2.6,1635169962.0
38.0,ostrovnoy,29.0,RU,1635169962.0,89.0,73.0646296658613,40.212038731177756,266.93,3.07,1635169962.0
39.0,arraial do cabo,75.0,BR,1635169816.0,73.0,-34.309308765833265,-34.5651603139045,297.13,3.09,1635169816.0
40.0,busselton,49.0,AU,1635169813.0,65.0,-46.751658197735814,107.29769424955987,281.51,2.78,1635169813.0
41.0,dikson,100.0,RU,1635169864.0,90.0,82.16764981342143,75.67090184967921,262.44,8.8,1635169864.0
42.0,dickinson,90.0,US,1635169963.0,91.0,47.15810484126317,-101.92061178851576,298.83,0.0,1635169963.0
43.0,port alfred,35.0,ZA,1635169963.0,70.0,-78.71734669210556,46.83309912387668,292.64,10.29,1635169963.0
44.0,rostock,100.0,DE,1635169963.0,72.0,53.94892323028202,12.152564461306241,285.91,4.66,1635169963.0
45.0,coihaique,75.0,CL,1635169802.0,66.0,-48.950765761067075,-74.87724346862375,281.49,5.66,1635169802.0
46.0,jamestown,90.0,SH,1635169790.0,82.0,-50.8825271924009,-16.049207034806955,289.77,3.6,1635169790.0
47.0,saint-philippe,34.0,RE,1635169963.0,77.0,-42.3298210082431,66.67147026559172,298.92,5.3,1635169963.0
48.0,kurilsk,0.0,RU,1635169964.0,81.0,45.226495948782315,147.27703393959018,281.97,4.42,1635169964.0
49.0,egvekinot,65.0,RU,1635169964.0,89.0,61.48995277614398,-178.1047511762129,255.86,3.2,1635169964.0
50.0,nanae,97.0,JP,1635169964.0,83.0,41.867559709362354,140.69334055787442,284.07,0.91,1635169964.0
51.0,namibe,40.0,AO,1635169965.0,64.0,-15.884611555304957,8.66047425052912,296.5,6.69,1635169965.0
52.0,manzanillo,39.0,MX,1635169965.0,72.0,18.10748464714449,-104.54807351190327,301.41,0.58,1635169965.0
53.0,mar del plata,0.0,AR,1635169965.0,46.0,-46.753313174562656,-44.83119950891796,294.16,10.28,1635169965.0
54.0,tomatlan,100.0,MX,1635169965.0,80.0,18.65488206152365,-108.02554229279964,296.71,1.23,1635169965.0
55.0,hermanus,34.0,ZA,1635169811.0,56.0,-54.00377906246031,13.048751178162576,294.15,10.21,1635169811.0
56.0,san cristobal,80.0,EC,1635169957.0,51.0,-6.493801280359079,-88.44805327917086,295.25,1.17,1635169957.0
57.0,ermoupolis,75.0,GR,1635170026.0,56.0,37.607470193608435,24.578886390889636,291.64,11.14,1635170026.0
58.0,espanola,100.0,CA,1635170026.0,43.0,46.36748740128323,-81.60495309639632,287.78,0.82,1635170026.0
59.0,lahaina,16.0,US,1635170026.0,85.0,17.243383337154256,-158.20584239121257,298.04,5.25,1635170026.0
60.0,chuy,0.0,UY,1635170027.0,39.0,-59.90580059631574,-27.25297805847788,297.03,8.45,1635170027.0
61.0,moroni,20.0,KM,1635170027.0,70.0,-11.92933793325102,43.016190747637125,302.15,10.8,1635170027.0
62.0,chilliwack,100.0,CA,1635169827.0,86.0,48.91989438467189,-121.94864691657546,286.36,1.54,1635169827.0
63.0,puerto ayora,60.0,EC,1635169862.0,94.0,-0.41280500437147793,-96.61098405473383,292.9,3.13,1635169862.0
64.0,gobabis,3.0,NA,1635170027.0,4.0,-23.12313408350252,19.178548388627206,305.74,9.89,1635170027.0
65.0,upernavik,4.0,GL,1635170027.0,65.0,73.5750222708526,-62.263213185295314,263.39,2.76,1635170027.0
66.0,vila velha,90.0,BR,1635169819.0,78.0,-24.592558772766992,-32.7109660791877,297.12,7.2,1635169819.0
67.0,deputatskiy,100.0,RU,1635170028.0,99.0,74.51896118990919,141.39880748024052,253.9,0.4,1635170028.0
68.0,atuona,98.0,PF,1635169816.0,81.0,-17.387128960100796,-140.24659286977507,297.65,6.94,1635169816.0
69.0,daru,100.0,PG,1635170028.0,87.0,-11.558056802801815,142.10251898958342,299.78,5.68,1635170028.0
70.0,castro,94.0,CL,1635170008.0,74.0,-48.43613475212479,-105.61318483056837,290.92,2.85,1635170008.0
71.0,beloha,85.0,MG,1635170028.0,60.0,-30.523150903785208,40.4692136487366,301.35,7.61,1635170028.0
72.0,gao,9.0,ML,1635170029.0,9.0,16.09789969198981,0.5165085186086174,312.04,4.1,1635170029.0
73.0,alzamay,100.0,RU,1635170029.0,72.0,55.597152035505076,98.69167134296282,281.47,4.22,1635170029.0
74.0,lompoc,90.0,US,1635170029.0,88.0,33.84696998829284,-121.0711047282816,289.58,5.66,1635170029.0
75.0,ponta do sol,89.0,CV,1635169812.0,65.0,20.614224419890363,-33.70274609450942,297.11,1.31,1635169812.0
76.0,new norfolk,76.0,AU,1635169821.0,71.0,-57.06421473709734,141.1989894735915,282.87,0.76,1635169821.0
77.0,hilo,90.0,US,1635169743.0,92.0,11.912270125338623,-153.38267579663685,295.26,2.06,1635169743.0
78.0,khatanga,100.0,RU,1635169860.0,96.0,86.0160753523011,94.96460744543162,258.65,4.67,1635169860.0
79.0,thompson,75.0,CA,1635170011.0,93.0,57.86390402707477,-94.51044874815852,270.24,1.54,1635170011.0
80.0,karla,75.0,EE,1635170030.0,66.0,59.04830355414015,21.207061653811053,282.91,5.14,1635170030.0
81.0,dedza,79.0,MW,1635170030.0,24.0,-14.419934606575467,33.944679489522485,301.23,3.53,1635170030.0
82.0,murray bridge,0.0,AU,1635170030.0,76.0,-35.73549699619601,140.4011440562109,287.35,0.96,1635170030.0
83.0,ballina,40.0,IE,1635170030.0,88.0,55.6122518497354,-9.70771081480845,294.14,0.0,1635170030.0
84.0,fengcheng,64.0,CN,1635170031.0,90.0,40.35126999889232,124.23074738434678,282.39,1.68,1635170031.0
85.0,gat,1.0,LY,1635169920.0,17.0,26.349047509723093,7.747047871501081,299.48,5.63,1635169920.0
86.0,potiskum,85.0,NG,1635170031.0,14.0,11.278470451803642,10.96590477202787,310.72,4.22,1635170031.0
87.0,larsnes,100.0,NO,1635170031.0,88.0,63.37184889179224,4.946540590978003,283.04,5.14,1635170031.0
88.0,rocha,0.0,UY,1635169946.0,46.0,-39.89742843910168,-51.01886628304439,296.94,9.61,1635169946.0
89.0,davenda,100.0,RU,1635170031.0,75.0,54.09306296900053,119.3399800730104,274.13,1.76,1635170031.0
90.0,constitucion,60.0,MX,1635169821.0,62.0,23.863770792977448,-115.94153723290364,290.35,6.65,1635169821.0
91.0,lasem,23.0,ID,1635170032.0,74.0,-6.616842874204536,111.61071982815974,300.89,0.6,1635170032.0
92.0,meulaboh,98.0,ID,1635170032.0,89.0,-2.138883753931694,88.21060650626026,298.16,1.08,1635170032.0
93.0,tuktoyaktuk,90.0,CA,1635169967.0,93.0,80.62414976307721,-127.31995319918443,272.15,4.63,1635169967.0
94.0,broken hill,0.0,AU,1635170032.0,21.0,-28.664504053817836,143.52240369798415,288.99,4.63,1635170032.0
95.0,saldanha,0.0,ZA,1635170033.0,61.0,-36.759480730063984,7.641558839399721,299.18,6.2,1635170033.0
96.0,yellowknife,90.0,CA,1635169950.0,94.0,84.34767729709836,-114.38809613850805,278.38,4.63,1635169950.0
97.0,luderitz,4.0,NA,1635170033.0,66.0,-27.881175191178684,7.365308052944414,291.66,2.63,1635170033.0
98.0,balkhash,35.0,KZ,1635170033.0,49.0,47.97888504286982,75.50219565618019,282.85,1.47,1635170033.0
99.0,georgetown,40.0,SH,1635169985.0,87.0,-12.955814912245899,-17.806414021634993,301.98,0.45,1635169985.0
100.0,butaritari,9.0,KI,1635170033.0,71.0,9.565812974251585,167.91977423103043,300.66,0.68,1635170033.0
101.0,soderhamn,100.0,SE,1635170034.0,75.0,61.51290315621435,16.769043267041525,283.14,4.7,1635170034.0
102.0,longyearbyen,75.0,SJ,1635169864.0,63.0,77.62511930273587,19.073647132952146,268.06,11.83,1635169864.0
103.0,abalak,100.0,NE,1635170034.0,82.0,17.017636948000188,5.7427912694779195,276.7,2.43,1635170034.0
104.0,belmonte,80.0,BR,1635170034.0,72.0,-15.16716152854049,-36.179337618406834,300.43,3.8,1635170034.0
105.0,vestmanna,75.0,FO,1635170034.0,93.0,70.40733674425013,-8.111060189187441,281.66,8.23,1635170034.0
106.0,narsaq,4.0,GL,1635170035.0,54.0,83.7208474203463,-61.81393602547489,271.51,1.26,1635170035.0
107.0,abancay,8.0,PE,1635170035.0,57.0,-13.550132986100266,-72.66870651206345,290.73,2.6,1635170035.0
108.0,itarema,50.0,BR,1635170035.0,51.0,7.582451979513152,-35.174074808529554,304.33,7.8,1635170035.0
109.0,havre-saint-pierre,90.0,CA,1635170035.0,81.0,54.0972453537733,-63.77998537353581,279.48,1.03,1635170035.0
110.0,jinchang,100.0,CN,1635170096.0,46.0,40.28337382846013,101.72249582609038,281.05,3.34,1635170096.0
111.0,yeppoon,100.0,AU,1635170096.0,83.0,-19.868830177173123,152.94719685766978,293.03,3.6,1635170096.0
112.0,mattru,82.0,SL,1635170096.0,84.0,2.0249015499373684,-15.847491179663677,300.48,1.15,1635170096.0
113.0,cascais,20.0,PT,1635170097.0,55.0,37.21031583322227,-13.568608520369963,296.79,3.13,1635170097.0
114.0,merville,97.0,FR,1635170097.0,94.0,50.69927773646032,2.674083822556753,288.68,5.45,1635170097.0
115.0,matamoros,8.0,MX,1635170097.0,54.0,25.01598292852094,-93.24397726536945,288.77,0.6,1635170097.0
116.0,ribeira grande,20.0,PT,1635170097.0,68.0,30.043109799994014,-36.86375731150352,295.37,3.09,1635170097.0
117.0,rawson,9.0,AR,1635170098.0,25.0,-48.20005165588683,-57.88645316905901,289.4,13.28,1635170098.0
118.0,richards bay,100.0,ZA,1635170098.0,81.0,-29.92040559751105,38.295833759348,291.69,3.8,1635170098.0
119.0,vardo,55.0,NO,1635170098.0,74.0,70.19510256936712,30.62411259522284,270.26,4.87,1635170098.0
120.0,tual,72.0,ID,1635170098.0,70.0,-6.342327941446058,130.4694657185081,301.65,1.28,1635170098.0
121.0,shimoda,100.0,JP,1635170099.0,94.0,21.089916533380105,143.92395875270017,289.11,11.68,1635170099.0
122.0,cayenne,75.0,GF,1635169949.0,82.0,12.475018334538234,-45.92058099532653,302.64,2.68,1635169949.0
123.0,severo-kurilsk,19.0,RU,1635169821.0,77.0,43.74126727257527,160.80010519623494,276.77,5.65,1635169821.0
124.0,omboue,100.0,GA,1635170099.0,79.0,-5.02961012516279,4.6646844606939055,300.26,5.85,1635170099.0
125.0,tiksi,100.0,RU,1635170099.0,98.0,84.24289960329929,123.55429052810007,255.54,1.82,1635170099.0
126.0,pimentel,0.0,PE,1635170099.0,72.0,-9.560720662776447,-85.10234449701301,291.31,4.63,1635170099.0
127.0,cap-aux-meules,20.0,CA,1635170100.0,66.0,49.44948843975294,-61.30686802542765,283.18,7.72,1635170100.0
128.0,nikolskoye,100.0,RU,1635170100.0,83.0,34.02531486660787,175.66059311172313,282.52,5.12,1635170100.0
129.0,dunedin,81.0,NZ,1635169930.0,94.0,-52.51332883735483,177.94874076960514,286.37,2.24,1635169930.0
130.0,port elizabeth,20.0,ZA,1635169918.0,64.0,-87.83287542296829,35.169610379006855,295.98,6.69,1635169918.0
131.0,cherskiy,95.0,RU,1635169815.0,99.0,82.75016293329529,160.58010477887478,245.72,0.92,1635169815.0
132.0,tasiilaq,100.0,GL,1635169821.0,80.0,64.18684033105032,-36.070120777589295,272.15,14.19,1635169821.0
133.0,hofn,0.0,IS,1635170101.0,56.0,59.24699936743386,-15.747909137337217,278.16,6.69,1635170101.0
134.0,kysyl-syr,100.0,RU,1635170101.0,99.0,62.703755909797025,122.96608107780088,271.28,1.14,1635170101.0
135.0,garwa,99.0,IN,1635170102.0,57.0,24.20736310819514,83.92486126891157,297.75,0.47,1635170102.0
136.0,qeshm,0.0,IR,1635170102.0,70.0,26.235561618166514,56.74602787313256,304.09,5.7,1635170102.0
137.0,airai,99.0,PW,1635170103.0,89.0,17.692368413810257,151.1418876083173,290.57,0.06,1635170103.0
138.0,pangnirtung,40.0,CA,1635170103.0,86.0,64.5440235076745,-65.0608617940984,267.15,2.06,1635170103.0
139.0,dunda,44.0,TZ,1635170104.0,17.0,-7.479419840078222,34.223962424088995,307.04,3.56,1635170104.0
140.0,kodiak,100.0,US,1635170105.0,89.0,56.51646741792996,-154.5076578020019,277.84,2.47,1635170105.0
141.0,pevek,100.0,RU,1635170106.0,97.0,83.84677841255117,166.59912541838497,255.92,2.15,1635170106.0
142.0,khasan,15.0,RU,1635170106.0,77.0,40.784759999052255,130.2956613673099,283.19,2.0,1635170106.0
143.0,bridgetown,40.0,BB,1635170107.0,65.0,12.361938028175942,-59.89321481561838,302.42,12.86,1635170107.0
144.0,aguimes,75.0,ES,1635170108.0,59.0,26.550431691255255,-15.115558351846346,296.5,7.72,1635170108.0
145.0,mount gambier,0.0,AU,1635169993.0,87.0,-54.971701972423325,128.1310389217221,278.1,3.09,1635169993.0
146.0,port hardy,75.0,CA,1635170108.0,81.0,48.57115246958497,-130.84273941841474,285.15,12.35,1635170108.0
147.0,samarai,86.0,PG,1635170108.0,79.0,-16.16230472776411,154.70455602628334,300.61,4.72,1635170108.0
148.0,kjollefjord,8.0,NO,1635170109.0,80.0,71.70326130352726,26.761021860861604,268.03,5.33,1635170109.0
149.0,bathsheba,40.0,BB,1635170109.0,65.0,21.348113773038236,-45.01424427499893,302.49,12.86,1635170109.0
150.0,kalmar,0.0,SE,1635170109.0,77.0,56.573612900543,17.175037354457146,285.45,4.63,1635170109.0
151.0,viedma,2.0,AR,1635169826.0,23.0,-42.727397746392256,-61.7089378790148,294.48,11.42,1635169826.0
152.0,comodoro rivadavia,20.0,AR,1635170109.0,26.0,-46.62589442900583,-69.58434113938145,287.07,15.43,1635170109.0
153.0,wanning,73.0,CN,1635170110.0,86.0,15.957889251039262,112.42962120093551,295.15,4.19,1635170110.0
154.0,mandurah,85.0,AU,1635170110.0,66.0,-32.43269872691039,115.93165597650744,286.29,5.16,1635170110.0
155.0,dargaville,98.0,NZ,1635170110.0,95.0,-37.04963898352622,172.49651108724242,289.27,0.64,1635170110.0
156.0,imperatriz,40.0,BR,1635170111.0,70.0,-5.790795382179667,-47.462830322259606,303.18,0.0,1635170111.0
157.0,tilichiki,100.0,RU,1635170111.0,98.0,58.12201494297611,165.47248698907987,262.6,1.5,1635170111.0
158.0,marsa matruh,40.0,EG,1635170111.0,65.0,32.98564382284857,27.414954816056564,298.26,6.69,1635170111.0
159.0,mahebourg,40.0,MU,1635170111.0,65.0,-49.65572650957532,75.29294602677314,298.31,6.17,1635170111.0
160.0,hukuntsi,3.0,BW,1635170112.0,5.0,-25.33453796685069,21.002004551759,308.44,11.55,1635170112.0
161.0,saurimo,75.0,AO,1635170112.0,54.0,-9.676866840617407,20.953788045645638,302.33,3.6,1635170112.0
162.0,east london,40.0,ZA,1635169867.0,60.0,-38.71890166240563,31.859372436166495,294.67,10.29,1635169867.0
163.0,saint-pierre,90.0,PM,1635170112.0,70.0,35.71441276898078,-51.63506210677835,298.97,4.12,1635170112.0
164.0,northam,25.0,AU,1635170113.0,75.0,-29.001913855745997,117.83760475711915,289.5,6.91,1635170113.0
165.0,omsukchan,100.0,RU,1635170173.0,95.0,60.061108090265236,156.3683222894877,259.21,1.63,1635170173.0
166.0,shingu,100.0,JP,1635170173.0,89.0,25.092452086907286,139.63511191482365,288.37,3.73,1635170173.0
167.0,ahipara,2.0,NZ,1635170173.0,92.0,-30.074661466655066,171.99457853465907,287.01,0.48,1635170173.0
168.0,high rock,100.0,BS,1635170174.0,74.0,26.320107819720093,-78.35419852240312,299.16,8.2,1635170174.0
169.0,christchurch,90.0,NZ,1635169860.0,89.0,-46.659643329321455,175.50536498477464,285.34,1.34,1635169860.0
170.0,ciudad bolivar,59.0,VE,1635170174.0,64.0,5.754007768529846,-63.22474028149455,302.93,4.29,1635170174.0
171.0,bo rai,97.0,TH,1635170174.0,89.0,12.960719687566254,102.45584685939104,303.07,2.61,1635170174.0
172.0,cap malheureux,33.0,MU,1635170174.0,68.0,-12.49877262643605,59.14336750159933,298.42,3.13,1635170174.0
173.0,sitka,22.0,US,1635170175.0,69.0,48.73810998762045,-142.050284521473,278.02,1.91,1635170175.0
174.0,darnah,100.0,LY,1635170175.0,57.0,32.347312862986186,21.95332063123493,297.63,7.82,1635170175.0
175.0,aasiaat,66.0,GL,1635170175.0,92.0,67.81520378098782,-52.36607664293565,257.55,2.8,1635170175.0
176.0,aban,100.0,RU,1635170175.0,73.0,57.51007128056051,96.07983634336915,281.92,8.09,1635170175.0
177.0,strezhevoy,8.0,RU,1635170176.0,89.0,60.93250625945109,78.5464452727241,269.14,1.1,1635170176.0
178.0,mitha tiwana,0.0,PK,1635170176.0,35.0,32.67354072581958,72.05828564317912,295.8,2.78,1635170176.0
179.0,maldonado,0.0,UY,1635169922.0,48.0,-35.14357657760525,-54.73348458953683,297.16,10.31,1635169922.0
180.0,kitimat,63.0,CA,1635170176.0,29.0,52.4379012837301,-129.4750937096095,281.36,1.98,1635170176.0
181.0,funtua,83.0,NG,1635170177.0,19.0,11.221968615811022,7.022869443904426,307.01,4.17,1635170177.0
182.0,faya,12.0,TD,1635169860.0,51.0,17.66241347184601,19.326386521050523,297.21,4.35,1635169860.0
183.0,hithadhoo,98.0,MV,1635170177.0,72.0,-5.94773693147981,76.65310789966492,301.55,7.06,1635170177.0
184.0,kibala,20.0,AO,1635170177.0,52.0,-10.92338648913261,16.16031965857684,307.12,2.06,1635170177.0
185.0,krasnyy chikoy,8.0,RU,1635170177.0,91.0,50.50718338009662,109.44099128951956,272.11,1.44,1635170177.0
186.0,fairbanks,90.0,US,1635169670.0,92.0,66.76013064973577,-144.3876563239381,270.5,0.0,1635169670.0
187.0,zhireken,79.0,RU,1635170178.0,83.0,53.51540528787706,117.39393011806862,272.45,1.78,1635170178.0
188.0,piney green,75.0,US,1635170178.0,87.0,33.190411081859565,-76.48961311455022,295.32,3.09,1635170178.0
189.0,boyolangu,90.0,ID,1635170178.0,77.0,-13.70573975863465,110.59374025287735,298.82,2.52,1635170178.0
190.0,nelson bay,94.0,AU,1635170179.0,72.0,-35.257058671995324,155.37349250843738,290.93,0.89,1635170179.0
191.0,nokaneng,84.0,BW,1635170179.0,22.0,-20.047130168495684,21.68602934604769,308.52,6.68,1635170179.0
192.0,tautira,69.0,PF,1635170179.0,77.0,-16.500792874815843,-143.04223094333423,296.16,0.08,1635170179.0
193.0,cidreira,0.0,BR,1635170179.0,47.0,-58.35728928556971,-19.096054371405415,295.33,2.04,1635170179.0
194.0,banda aceh,96.0,ID,1635169948.0,83.0,5.014011573017157,90.35449262139804,299.64,3.73,1635169948.0
195.0,alta floresta,90.0,BR,1635170180.0,88.0,-11.282818114330837,-57.54705876127731,298.05,3.09,1635170180.0
196.0,nuevo ideal,1.0,MX,1635170180.0,49.0,24.863139694159088,-104.82923894976939,288.58,0.62,1635170180.0
197.0,sieradz,60.0,PL,1635170180.0,52.0,51.72683792243788,18.492902039283194,286.88,7.2,1635170180.0
198.0,atar,84.0,MR,1635170180.0,13.0,19.930266729566682,-8.374367712923686,309.49,5.74,1635170180.0
199.0,harper,100.0,LR,1635170181.0,71.0,-3.6238947261619074,-6.957166805266326,300.73,4.82,1635170181.0
200.0,cabo san lucas,5.0,MX,1635169950.0,81.0,10.969888692001646,-114.76989779829186,298.43,4.47,1635169950.0
201.0,jega,56.0,NG,1635170181.0,14.0,11.098279101086789,4.319554122639005,311.0,3.52,1635170181.0
202.0,ulladulla,13.0,AU,1635170181.0,73.0,-39.457980501909844,155.42118018831576,287.65,3.41,1635170181.0
203.0,torbay,90.0,CA,1635169813.0,89.0,43.21806111585309,-41.362742862921635,279.08,11.83,1635169813.0
204.0,san gabriel,90.0,EC,1635170181.0,86.0,0.34317680692453223,-77.59115677422524,289.97,2.06,1635170181.0
205.0,volot,25.0,RU,1635170182.0,78.0,57.927246989944166,30.9227823300904,278.49,5.21,1635170182.0
206.0,necochea,1.0,AR,1635170070.0,50.0,-48.63858007343596,-53.60624430985945,293.73,7.7,1635170070.0
207.0,krasnovishersk,39.0,RU,1635170182.0,83.0,60.400842969819934,57.69139992213522,270.63,2.15,1635170182.0
208.0,vao,0.0,NC,1635169865.0,71.0,-25.781061450314255,169.91217833410428,294.42,7.3,1635169865.0
209.0,sao desiderio,100.0,BR,1635170182.0,46.0,-12.270421422842873,-44.334224700806146,304.97,2.7,1635170182.0
210.0,camrose,100.0,CA,1635170183.0,68.0,53.279887231860414,-112.98177328021282,277.81,7.04,1635170183.0
211.0,luanda,75.0,AO,1635170074.0,88.0,-9.282048637899578,7.909252979111045,297.15,2.57,1635170074.0
212.0,broome,100.0,AU,1635170183.0,85.0,-20.142777886691803,122.46503716878993,288.94,0.45,1635170183.0
213.0,itabera,61.0,BR,1635170183.0,58.0,-23.736392247897626,-49.11373114235903,295.58,4.87,1635170183.0
214.0,tarakan,40.0,ID,1635170106.0,83.0,2.8416641315531734,117.14778396732606,300.87,1.54,1635170106.0
215.0,katsuura,100.0,JP,1635170183.0,77.0,22.17795822535888,154.35483760275952,288.23,11.02,1635170183.0
216.0,kasulu,100.0,TZ,1635170184.0,58.0,-4.342134057885119,30.577862939137702,298.2,1.59,1635170184.0
217.0,vestmannaeyjar,90.0,IS,1635170184.0,93.0,59.30605271376413,-20.306414112301184,280.7,2.57,1635170184.0
218.0,malindi,100.0,KE,1635170184.0,69.0,-4.176247478717258,41.394839706206085,301.03,4.87,1635170184.0
219.0,chapada dos guimaraes,100.0,BR,1635170184.0,80.0,-15.64004468757912,-55.80513570067569,293.96,0.95,1635170184.0
220.0,mogok,9.0,MM,1635170185.0,98.0,22.45413199996878,97.0580750139128,289.86,1.04,1635170185.0
221.0,ugoofaaru,81.0,MV,1635170185.0,79.0,5.907378627711353,67.61546255444912,300.44,4.1,1635170185.0
222.0,kontagora,19.0,NG,1635170245.0,23.0,10.988532005635193,5.740980157411343,308.43,1.44,1635170245.0
223.0,krasnoslobodsk,75.0,RU,1635170245.0,56.0,54.27092340404204,43.706966666689624,277.05,7.0,1635170245.0
224.0,poum,26.0,NC,1635170246.0,71.0,-16.660735162619616,162.87026093541147,296.75,6.72,1635170246.0
225.0,sioux lookout,90.0,CA,1635170213.0,93.0,54.78538853005142,-91.92966823479543,274.19,1.54,1635170213.0
226.0,achit,100.0,RU,1635170246.0,98.0,57.16585998502708,57.84564127560736,274.9,3.21,1635170246.0
227.0,kalabo,96.0,ZM,1635170246.0,27.0,-14.064769529312727,21.194768999208264,306.92,0.69,1635170246.0
228.0,marion,90.0,US,1635170246.0,93.0,37.8518258646901,-88.80561609109186,289.33,7.72,1635170246.0
229.0,saint-leu,43.0,RE,1635170247.0,87.0,-22.713425124646378,53.4143664577505,298.63,3.99,1635170247.0
230.0,yulara,40.0,AU,1635169859.0,23.0,-26.434581366746954,126.28412901763022,302.06,7.72,1635169859.0
231.0,vilcun,94.0,CL,1635170247.0,78.0,-38.52308050548733,-71.7977175266402,283.56,0.93,1635170247.0
232.0,pisco,29.0,PE,1635170247.0,82.0,-15.115426604272528,-79.63673835052309,290.18,2.57,1635170247.0
233.0,boldumsaz,97.0,TM,1635170247.0,21.0,42.14010191247141,59.5699983497619,291.18,3.12,1635170247.0
234.0,la ronge,90.0,CA,1635170248.0,75.0,57.10352500638825,-105.14669260359977,277.29,7.72,1635170248.0
235.0,sibolga,100.0,ID,1635170095.0,88.0,1.2973708389692007,96.48013221377062,298.32,0.88,1635170095.0
236.0,souillac,40.0,MU,1635169817.0,65.0,-60.79869454649679,76.17279694846934,298.36,6.17,1635169817.0
237.0,matay,0.0,EG,1635170248.0,27.0,27.459077288398433,27.666708825839663,301.62,6.56,1635170248.0
238.0,fortuna,75.0,US,1635169760.0,75.0,38.93609345064564,-131.0712195500468,283.91,3.13,1635169760.0
239.0,touros,15.0,BR,1635170248.0,55.0,-3.427761049512654,-31.795949534926677,302.65,8.05,1635170248.0
240.0,savannah bight,8.0,HN,1635170249.0,77.0,17.96800189407105,-85.01718856480505,303.71,8.73,1635170249.0
241.0,leningradskiy,100.0,RU,1635170249.0,93.0,67.98651542039511,179.79336065190148,258.54,4.77,1635170249.0
242.0,great falls,75.0,US,1635170103.0,57.0,47.92178005842442,-111.99909271100667,286.71,6.17,1635170103.0
243.0,hovd,12.0,MN,1635170249.0,45.0,46.217008191353386,102.10421315368541,275.6,0.9,1635170249.0
244.0,ashington,20.0,GB,1635170250.0,82.0,55.31424828271946,-1.5928194185706843,290.18,3.13,1635170250.0
245.0,lagoa,42.0,PT,1635170250.0,76.0,46.7887516818235,-33.71196656133807,292.17,3.82,1635170250.0
246.0,correntina,100.0,BR,1635170250.0,52.0,-13.178507495690369,-44.432424518156495,303.33,2.04,1635170250.0
247.0,tignere,53.0,CM,1635170250.0,53.0,7.7913013964830355,11.823744736947475,300.97,2.57,1635170250.0
248.0,miyako,99.0,JP,1635170251.0,82.0,40.21753372114728,142.4667407850526,285.96,2.88,1635170251.0
249.0,chenghai,90.0,CN,1635170251.0,78.0,23.47801055640234,116.82273906202204,295.1,1.0,1635170251.0
250.0,dukat,100.0,RU,1635170251.0,96.0,61.623415869874094,154.74572357201686,258.78,1.76,1635170251.0
251.0,nerchinskiy zavod,100.0,RU,1635170251.0,81.0,51.21477359120507,120.03366635118073,273.21,1.73,1635170251.0
252.0,alexandria,40.0,EG,1635170105.0,61.0,32.259976129887406,29.47227563254421,299.13,4.63,1635170105.0
253.0,keuruu,100.0,FI,1635170252.0,96.0,62.450637875325356,25.073881523835865,281.23,4.02,1635170252.0
254.0,karaj,0.0,IR,1635170252.0,13.0,35.821160072880474,51.00953353645326,294.24,2.06,1635170252.0
255.0,kruisfontein,0.0,ZA,1635169815.0,59.0,-49.89127859785637,26.24433929538165,294.2,7.05,1635169815.0
256.0,port lincoln,3.0,AU,1635170252.0,77.0,-40.69810006565084,134.34510014192296,287.69,7.45,1635170252.0
257.0,manokwari,92.0,ID,1635170253.0,75.0,-2.2611271346025887,133.6363393045744,299.52,1.23,1635170253.0
258.0,florestopolis,89.0,BR,1635170253.0,73.0,-22.95792498479959,-51.37966583357451,296.38,5.05,1635170253.0
259.0,kudahuvadhoo,58.0,MV,1635170253.0,76.0,1.5592736049311782,66.88642593295953,301.27,6.62,1635170253.0
260.0,san carlos de bariloche,40.0,AR,1635169987.0,50.0,-42.2295388114402,-68.72337231253019,286.01,12.86,1635169987.0
261.0,okato,68.0,NZ,1635170253.0,96.0,-37.87456682743037,170.48633219675327,288.38,2.62,1635170253.0
262.0,bambous virieux,40.0,MU,1635169812.0,65.0,-35.29072619204909,83.34651062095816,298.29,6.17,1635169812.0
263.0,anadyr,69.0,RU,1635170254.0,95.0,61.80127925828771,175.41861341487567,249.42,4.21,1635170254.0
264.0,iztapa,40.0,GT,1635170254.0,94.0,13.359375778787438,-90.69649270275775,297.18,0.0,1635170254.0
265.0,dobruska,83.0,CZ,1635170254.0,44.0,50.30648985403195,16.203732322799226,287.19,5.91,1635170254.0
266.0,brownwood,40.0,US,1635170254.0,94.0,31.611496745682587,-99.48092440988627,292.15,0.0,1635170254.0
267.0,kemecse,1.0,HU,1635170255.0,33.0,48.08347132449558,21.76689267006566,288.2,1.79,1635170255.0
268.0,santa marta,40.0,CO,1635170114.0,74.0,13.734475849146733,-74.97996493188047,302.23,0.0,1635170114.0
269.0,tombouctou,49.0,ML,1635170255.0,13.0,17.906889570611668,-1.745739010556548,311.02,3.06,1635170255.0
270.0,nouadhibou,100.0,MR,1635170255.0,50.0,21.362193449170846,-15.535723641606381,300.14,11.32,1635170255.0
271.0,atasu,100.0,KZ,1635170255.0,42.0,47.47098516862286,72.6534028032003,283.18,2.57,1635170255.0
272.0,tevriz,100.0,RU,1635170256.0,78.0,58.86878296541343,72.18526457533432,277.63,1.8,1635170256.0
273.0,allende,96.0,MX,1635170256.0,44.0,28.333499600570576,-100.78329334952082,296.8,1.32,1635170256.0
274.0,japura,100.0,BR,1635170256.0,94.0,-1.06817004344407,-68.2906457781616,297.48,0.36,1635170256.0
275.0,muroto,0.0,JP,1635170256.0,73.0,29.622758305957277,135.71419431986266,290.07,5.73,1635170256.0
276.0,kumluca,75.0,TR,1635170257.0,55.0,35.034885333903304,29.661370605932547,295.5,2.33,1635170257.0
277.0,acajutla,4.0,SV,1635170257.0,73.0,7.147822871809225,-91.52563716183134,301.23,0.75,1635170257.0
278.0,boca do acre,100.0,BR,1635170317.0,97.0,-9.131543088465904,-67.22019969473212,295.23,1.63,1635170317.0
279.0,moussoro,34.0,TD,1635170317.0,12.0,15.991313400844419,17.273269057113907,312.01,6.76,1635170317.0
280.0,alofi,40.0,NU,1635170318.0,88.0,-26.170213348817256,-166.70651018711033,294.09,2.06,1635170318.0
281.0,kupang,62.0,ID,1635169819.0,76.0,-11.43002891424561,123.84858329007938,300.64,2.15,1635169819.0
282.0,bubaque,100.0,GW,1635170318.0,73.0,9.723643582554132,-19.354876284037914,301.47,1.54,1635170318.0
283.0,sao filipe,99.0,CV,1635170318.0,72.0,8.852368631458901,-34.98559494396622,299.35,6.98,1635170318.0
284.0,houma,1.0,US,1635170319.0,98.0,27.126904674301002,-89.90572309112903,297.59,0.0,1635170319.0
285.0,bereda,60.0,SO,1635170319.0,76.0,15.07371641737241,49.977435469353395,290.93,1.51,1635170319.0
286.0,portland,100.0,AU,1635170151.0,65.0,-41.35186972904388,139.90332898688183,287.15,2.68,1635170151.0
287.0,eldorado,1.0,BR,1635170319.0,65.0,-23.85142833335277,-54.44340896885009,297.64,3.07,1635170319.0
288.0,marsh harbour,100.0,BS,1635170319.0,82.0,30.48540791419927,-71.64526690668534,299.84,6.23,1635170319.0
289.0,victoria,100.0,SC,1635169645.0,68.0,-0.31486150056854,61.68055444827067,297.77,1.79,1635169645.0
290.0,naze,86.0,JP,1635170320.0,65.0,20.35888085381781,139.4796674285269,293.18,6.59,1635170320.0
291.0,trofors,100.0,NO,1635170320.0,99.0,65.74393884858728,13.533855540886776,283.85,2.41,1635170320.0
292.0,coahuayana,100.0,MX,1635170320.0,91.0,-3.1418033911552925,-115.02735497167902,298.01,1.62,1635170320.0
293.0,tommot,98.0,RU,1635170320.0,95.0,58.98413698614564,128.4060495982058,275.0,3.08,1635170320.0
294.0,maningrida,98.0,AU,1635170321.0,78.0,-11.89792273623658,133.8675584194051,300.45,3.15,1635170321.0
295.0,saryg-sep,69.0,RU,1635170321.0,58.0,51.27795496449639,96.53578915466778,275.66,1.49,1635170321.0
296.0,hasaki,100.0,JP,1635170321.0,72.0,29.49393399163442,156.50972664050312,288.37,10.51,1635170321.0
297.0,novobirilyussy,100.0,RU,1635170321.0,62.0,58.360060270762546,89.78671029209204,281.76,7.63,1635170321.0
298.0,geraldton,40.0,AU,1635170282.0,87.0,-27.999538999876243,111.9715891144981,285.38,2.57,1635170282.0
299.0,kroya,90.0,ID,1635170322.0,77.0,-9.879072311613513,108.26933162217591,299.55,1.97,1635170322.0
300.0,berlevag,20.0,NO,1635170322.0,74.0,75.82353150185065,30.610974742695646,268.12,1.03,1635170322.0
301.0,dobric,0.0,BG,1635170322.0,47.0,43.69398728419384,27.95519783559314,289.29,5.97,1635170322.0
302.0,kasongo-lunda,100.0,CD,1635170323.0,95.0,-7.4678627224168395,16.80016292050894,296.32,2.6,1635170323.0
303.0,barra do garcas,75.0,BR,1635170323.0,73.0,-13.763709877096503,-53.1491870195225,299.47,0.0,1635170323.0
304.0,bengkulu,100.0,ID,1635170323.0,89.0,-9.715816736513403,92.68237996770944,297.76,1.87,1635170323.0
305.0,robe,50.0,ET,1635170323.0,83.0,7.536225746904023,39.45418814523072,281.48,5.88,1635170323.0
306.0,saint-francois,0.0,GP,1635170324.0,55.0,20.46908586687792,-50.736142515492986,291.75,2.57,1635170324.0
307.0,choix,0.0,MX,1635170324.0,56.0,26.72776224958065,-108.1070706285576,293.33,1.96,1635170324.0
308.0,varkkallai,96.0,IN,1635170324.0,86.0,7.41688666654305,75.22525857665977,299.03,3.09,1635170324.0
309.0,brae,51.0,GB,1635170324.0,79.0,62.735509050147954,0.8884649214413969,284.1,10.45,1635170324.0
310.0,praia da vitoria,40.0,PT,1635170325.0,73.0,48.28340529754118,-21.80829900860101,295.29,2.93,1635170325.0
311.0,antalaha,11.0,MG,1635170325.0,71.0,-14.810949997728883,50.68268155693076,298.76,4.74,1635170325.0
312.0,caravelas,100.0,BR,1635170325.0,79.0,-21.5249387341955,-25.624127374190067,300.37,1.66,1635170325.0
313.0,mount isa,93.0,AU,1635170245.0,34.0,-25.028297254196445,139.91306113504072,300.02,2.06,1635170245.0
314.0,porto novo,96.0,CV,1635170136.0,67.0,15.197627083380738,-33.29777733814126,304.05,3.48,1635170136.0
315.0,faanui,100.0,PF,1635170325.0,77.0,-1.3639376006357082,-155.0017116818509,299.04,3.41,1635170325.0
316.0,kununurra,40.0,AU,1635170326.0,65.0,-18.754695388496103,128.72291326994957,301.14,4.12,1635170326.0
317.0,fayaoue,4.0,NC,1635170326.0,76.0,-19.98175827347727,166.79148488902047,296.56,8.51,1635170326.0
318.0,grindavik,75.0,IS,1635169811.0,81.0,59.15769518526568,-24.60452496054299,278.41,2.57,1635169811.0
319.0,bahia de caraquez,100.0,EC,1635170326.0,85.0,0.17234799535020784,-81.57656160790907,296.25,3.84,1635170326.0
320.0,benguela,68.0,AO,1635170326.0,62.0,-11.486564815933306,10.68196357224079,299.58,5.04,1635170326.0
321.0,bakel,99.0,SN,1635170327.0,30.0,14.893686835815103,-12.526325889347504,310.13,1.67,1635170327.0
322.0,umm kaddadah,49.0,SD,1635170327.0,14.0,17.41240669147909,26.8667159287497,307.54,5.41,1635170327.0
323.0,miandrivazo,0.0,MG,1635170327.0,19.0,-19.876842555231562,45.47974568208565,311.36,3.81,1635170327.0
324.0,fallingbostel,86.0,DE,1635170328.0,62.0,52.81856215305771,9.76541477231288,287.81,3.23,1635170328.0
325.0,mayor pablo lagerenza,74.0,PY,1635170328.0,28.0,-20.606056442488523,-60.031010148562814,302.63,2.54,1635170328.0
326.0,taltal,24.0,CL,1635170328.0,75.0,-25.76688437157432,-70.57848400495709,289.39,1.79,1635170328.0
327.0,kungurtug,23.0,RU,1635170328.0,72.0,50.67007533732976,97.62747987370756,272.21,1.38,1635170328.0
328.0,los llanos de aridane,75.0,ES,1635170329.0,77.0,25.133378672636525,-18.81644526002796,294.01,2.24,1635170329.0
329.0,worland,100.0,US,1635170329.0,71.0,43.717048714015874,-107.8758513565138,286.81,1.79,1635170329.0
330.0,boueni,19.0,YT,1635170329.0,80.0,-13.095004564669324,44.28411724571097,302.14,3.47,1635170329.0
331.0,shar,14.0,KZ,1635170329.0,45.0,49.628527267831004,80.56968506354855,280.24,3.36,1635170329.0
332.0,port hawkesbury,90.0,CA,1635170390.0,89.0,42.87615943707567,-60.34597412943448,284.76,2.68,1635170390.0
333.0,micheweni,87.0,TZ,1635170390.0,67.0,-6.047402328939924,44.49220564865621,301.3,3.42,1635170390.0
334.0,clemson,1.0,US,1635170390.0,89.0,35.01547135370237,-82.88596829689757,294.19,0.45,1635170390.0
335.0,navur,100.0,AM,1635170390.0,79.0,40.820987639135694,45.30444726401262,277.14,1.33,1635170390.0
336.0,gamba,100.0,GA,1635170391.0,82.0,-6.541074987183933,6.001608026687734,299.24,5.19,1635170391.0
337.0,shalya,100.0,RU,1635170391.0,98.0,56.87130292598218,58.48961306351467,273.97,3.05,1635170391.0
338.0,palmer,90.0,US,1635170391.0,85.0,61.64108879346179,-146.48436721490853,285.18,3.09,1635170391.0
339.0,vila franca do campo,88.0,PT,1635170391.0,70.0,37.75052780410245,-24.325301787101722,294.38,0.84,1635170391.0
340.0,kedrovyy,100.0,RU,1635170392.0,65.0,58.04789429555842,78.83704353664905,282.38,7.49,1635170392.0
341.0,kashi,0.0,CN,1635170392.0,30.0,38.36063983558151,75.70164082200412,285.71,3.0,1635170392.0
342.0,bonavista,100.0,CA,1635170392.0,84.0,50.330577631746394,-51.64312449059631,279.33,15.18,1635170392.0
343.0,ferrara,100.0,IT,1635170392.0,52.0,44.8266868564661,11.625895976546587,289.88,3.23,1635170392.0
344.0,nantucket,100.0,US,1635170180.0,86.0,39.725089127638114,-68.62571121194532,287.6,8.45,1635170180.0
345.0,fredericksburg,1.0,US,1635170337.0,85.0,30.55527490535283,-98.74744304220755,293.12,1.79,1635170337.0
346.0,makakilo city,90.0,US,1635170393.0,79.0,9.682192181257292,-164.9366050003613,297.35,0.0,1635170393.0
347.0,kahului,43.0,US,1635170368.0,86.0,34.450443874908416,-147.86820784866893,298.06,3.13,1635170368.0
348.0,kavieng,8.0,PG,1635169818.0,75.0,1.1751228618163623,153.5673744817804,300.89,2.92,1635169818.0
349.0,fuerte olimpo,5.0,PY,1635170393.0,30.0,-20.01699673271453,-58.37630524902504,303.62,0.89,1635170393.0
350.0,puerto rico,0.0,CO,1635170393.0,38.0,2.015246451174022,-74.77983116531466,298.43,1.64,1635170393.0
351.0,angoche,3.0,MZ,1635170393.0,75.0,-18.134632784656745,41.51427616745548,301.08,7.43,1635170393.0
352.0,vikindu,1.0,TZ,1635170394.0,52.0,-7.155142574602635,40.16165911906185,302.57,5.36,1635170394.0
353.0,mandera,74.0,KE,1635170394.0,34.0,4.500951835308655,41.682601553908086,307.05,2.69,1635170394.0
354.0,leh,97.0,IN,1635170394.0,56.0,33.323406936473646,79.62381058355015,273.73,1.53,1635170394.0
355.0,dingle,100.0,IE,1635169820.0,91.0,52.31669120970187,-12.781176278241162,297.39,2.02,1635169820.0
356.0,roma,90.0,AU,1635170163.0,94.0,-28.850206418006742,146.51140393112877,287.81,3.09,1635170163.0
357.0,saint-georges,75.0,GF,1635170394.0,74.0,3.48902885154223,-50.65776831052716,302.97,10.29,1635170394.0
358.0,wewak,97.0,PG,1635170395.0,83.0,-3.626717604659632,143.9223444426371,299.88,2.12,1635170395.0
359.0,pozo colorado,0.0,PY,1635170395.0,27.0,-23.432438162349513,-58.53457739032325,299.82,2.62,1635170395.0
360.0,saint-augustin,6.0,CA,1635170309.0,58.0,50.29072737452225,-60.02780500027124,278.56,5.08,1635170309.0
361.0,iralaya,10.0,HN,1635170395.0,83.0,15.909126360513184,-82.09297961560702,300.2,4.62,1635170395.0
362.0,altay,21.0,CN,1635170396.0,48.0,46.78813178888194,88.66355282405334,276.72,2.76,1635170396.0
363.0,xapuri,100.0,BR,1635170396.0,97.0,-10.763171722322028,-68.54193651290576,292.38,2.28,1635170396.0
364.0,eureka,79.0,US,1635170396.0,95.0,41.480591503066876,-135.56860003999194,284.06,2.68,1635170396.0
365.0,laguna,90.0,BR,1635170396.0,95.0,-33.018537009123094,-41.163574087186674,287.05,1.34,1635170396.0
366.0,noyabrsk,84.0,RU,1635170397.0,86.0,63.38389486423395,75.55217957649762,268.19,2.81,1635170397.0
367.0,vanimo,96.0,PG,1635170397.0,83.0,3.155246208930464,142.00881511618803,299.23,1.6,1635170397.0
368.0,ruangwa,19.0,TZ,1635170397.0,34.0,-9.998942628239973,38.622485731749606,305.82,5.88,1635170397.0
369.0,poya,3.0,NC,1635170397.0,85.0,-25.58700567419919,161.44543383798094,294.26,2.01,1635170397.0
370.0,nome,38.0,US,1635170149.0,89.0,63.69255129255092,-168.12457748221195,269.91,5.43,1635170149.0
371.0,pacific grove,100.0,US,1635170398.0,92.0,27.065662375060114,-135.3977942749529,287.12,1.34,1635170398.0
372.0,kraskino,1.0,RU,1635170398.0,84.0,43.03842208253471,130.84323813180214,282.13,1.2,1635170398.0
373.0,aitape,76.0,PG,1635170398.0,84.0,1.3789213710373218,143.70539762746336,299.12,1.19,1635170398.0
374.0,verkhovazhye,100.0,RU,1635170398.0,69.0,60.340889570222174,41.83073584423511,272.66,3.86,1635170398.0
375.0,mayo,100.0,CA,1635170399.0,84.0,63.71813404276406,-138.10692997200692,294.49,0.45,1635170399.0
376.0,oktyabrskiy,100.0,RU,1635170399.0,84.0,51.85047532011953,154.38155924913042,275.64,7.47,1635170399.0
377.0,salinopolis,93.0,BR,1635170276.0,65.0,6.639322859735188,-43.444774543735036,303.68,5.75,1635170276.0
378.0,marzuq,2.0,LY,1635170399.0,18.0,26.42320667590269,14.23137144620813,300.98,1.53,1635170399.0
379.0,pacora,40.0,CO,1635170399.0,76.0,5.509874143596463,-75.31380395009556,304.38,1.03,1635170399.0
380.0,celestun,34.0,MX,1635170400.0,81.0,23.647533906762675,-92.41222021838351,300.42,3.83,1635170400.0
381.0,gladstone,75.0,AU,1635170400.0,88.0,-24.530540444715882,151.38188759596108,294.11,2.57,1635170400.0
382.0,baghdad,0.0,IQ,1635170287.0,16.0,30.209339452263038,44.39512391606948,303.1,4.63,1635170287.0
383.0,shirokiy,2.0,RU,1635170401.0,72.0,64.64765237446139,148.88736825757627,277.37,2.53,1635170401.0
384.0,liling,5.0,CN,1635170402.0,80.0,27.58000230002638,113.49131058905346,290.94,1.65,1635170402.0
385.0,mlonggo,10.0,ID,1635170403.0,74.0,-4.536932145216369,110.51550503570667,301.19,2.15,1635170403.0
386.0,kulhudhuffushi,100.0,MV,1635170404.0,79.0,7.206933136111587,68.58342512402305,300.74,4.29,1635170404.0
387.0,yarkovo,100.0,RU,1635170465.0,80.0,57.19025312871801,66.6368262421494,277.37,2.59,1635170465.0
388.0,gornji milanovac,0.0,RS,1635170443.0,48.0,44.00569232832237,20.514792482635983,288.33,4.72,1635170443.0
389.0,labuan,100.0,MY,1635170465.0,77.0,5.859339400023757,115.01717134168751,299.24,3.71,1635170465.0
390.0,nishihara,40.0,JP,1635170465.0,73.0,23.855513347217297,130.51164836821306,295.75,7.2,1635170465.0
391.0,hirara,26.0,JP,1635170466.0,69.0,24.7800339171001,126.557011774253,298.05,10.41,1635170466.0
392.0,yar-sale,92.0,RU,1635170466.0,88.0,71.18789080031493,73.72911928385548,266.74,3.29,1635170466.0
393.0,damphu,20.0,BT,1635170466.0,97.0,26.79060761898687,89.94275719345569,288.59,1.8,1635170466.0
394.0,odessa,0.0,US,1635170221.0,53.0,30.640372996483933,-101.9028511892659,282.11,2.0,1635170221.0
395.0,mayumba,100.0,GA,1635170467.0,84.0,-6.397664787285862,7.864687756757917,299.09,4.97,1635170467.0
396.0,qasigiannguit,0.0,GL,1635170467.0,82.0,67.83639709979704,-50.0808434536105,261.29,1.67,1635170467.0
397.0,san patricio,16.0,MX,1635170467.0,86.0,10.363454184337101,-109.06562103772569,300.09,2.27,1635170467.0
398.0,alice springs,31.0,AU,1635170280.0,25.0,-20.134121190888337,132.9208858534401,297.9,3.09,1635170280.0
399.0,winchester,40.0,US,1635170467.0,71.0,38.061640699206464,-83.80452559403939,290.53,2.24,1635170467.0
400.0,yar,7.0,RU,1635170468.0,75.0,58.12334290810486,52.1363056153379,271.62,4.08,1635170468.0
401.0,aklavik,100.0,CA,1635170468.0,95.0,68.41687023688021,-134.80700893468597,267.55,1.97,1635170468.0
402.0,tianpeng,100.0,CN,1635170468.0,88.0,31.797040513908797,103.87821739660035,286.18,1.27,1635170468.0
403.0,trairi,99.0,BR,1635170398.0,55.0,-1.4662189270567154,-37.977679002288795,302.76,6.46,1635170398.0
404.0,yanam,1.0,IN,1635170469.0,80.0,15.910829835535338,83.47272594355695,301.37,1.95,1635170469.0
405.0,puerto parra,100.0,CO,1635170469.0,95.0,6.687051700493015,-74.17943686944625,297.16,0.36,1635170469.0
406.0,tjome,90.0,NO,1635170469.0,98.0,58.64109854877606,10.512427316245379,286.09,7.2,1635170469.0
407.0,seredka,82.0,RU,1635170469.0,75.0,58.13274733571782,28.56516474218907,280.01,4.65,1635170469.0
408.0,alirajpur,49.0,IN,1635170470.0,45.0,22.443522275057646,74.30241471669015,299.06,0.7,1635170470.0
409.0,guinguineo,74.0,SN,1635170470.0,40.0,14.4595877685081,-15.77633045176475,306.53,2.05,1635170470.0
410.0,pirojpur,3.0,BD,1635170470.0,75.0,22.50859046163069,89.97991578880954,296.87,1.85,1635170470.0
411.0,mahajanga,20.0,MG,1635170470.0,70.0,-15.433005404584407,45.16025670455343,303.16,6.69,1635170470.0
412.0,agadir,0.0,MA,1635170471.0,56.0,30.86450198363616,-10.987910901969087,299.4,3.41,1635170471.0
413.0,hulyaypole,8.0,UA,1635170471.0,35.0,47.88616806083334,36.40715814257868,280.26,3.42,1635170471.0
414.0,abu dhabi,0.0,AE,1635170230.0,35.0,24.172650793844056,54.59239753588625,306.21,3.09,1635170230.0
415.0,tuatapere,100.0,NZ,1635170471.0,98.0,-45.80730313030061,157.56005158493514,285.43,0.76,1635170471.0
416.0,namtsy,100.0,RU,1635170472.0,92.0,63.525212205978534,130.33025594362198,272.21,1.49,1635170472.0
417.0,maceio,40.0,BR,1635170413.0,55.0,-15.178299031533228,-29.253385867646102,305.84,3.6,1635170413.0
418.0,karratha,4.0,AU,1635170472.0,61.0,-16.831439614861083,116.46304285005561,298.81,6.93,1635170472.0
419.0,esperance,100.0,AU,1635170472.0,86.0,-34.789247086886085,126.30229475601783,286.06,9.34,1635170472.0
420.0,la seyne-sur-mer,0.0,FR,1635170472.0,57.0,41.191965883687345,6.001913539208033,295.73,3.58,1635170472.0
421.0,tanout,45.0,NE,1635170473.0,10.0,14.988177941791136,8.535592618105198,309.34,7.29,1635170473.0
422.0,chara,100.0,RU,1635170473.0,74.0,55.69928532728201,118.84080956146397,272.1,1.55,1635170473.0
423.0,prachuap khiri khan,50.0,TH,1635170339.0,92.0,11.816079567928554,100.16056245389177,295.72,1.11,1635170339.0
424.0,tomigusuku,40.0,JP,1635170473.0,73.0,26.647197940030097,126.55748819779461,296.02,7.2,1635170473.0
425.0,bulata,100.0,PH,1635170474.0,81.0,9.891915861487462,121.8803795732465,300.45,3.49,1635170474.0
426.0,pavlovka,100.0,RU,1635170474.0,62.0,55.39746922970278,56.39696827906607,274.91,6.98,1635170474.0
427.0,isangel,41.0,VU,1635170474.0,83.0,-18.34626367495615,176.402509904111,296.3,4.66,1635170474.0
428.0,warud,99.0,IN,1635170474.0,52.0,21.500558850969043,78.40163473647812,297.62,2.15,1635170474.0
429.0,columbia,95.0,US,1635170368.0,95.0,39.87819433875154,-76.46567659547678,293.65,2.08,1635170368.0
430.0,falam,95.0,MM,1635170475.0,97.0,22.204122337986547,93.78350802104478,288.05,0.86,1635170475.0
431.0,guarapari,100.0,BR,1635170475.0,89.0,-21.959860709220564,-38.6409369959012,295.09,6.03,1635170475.0
432.0,college,100.0,US,1635170356.0,92.0,68.03913959340491,-149.2248800696226,270.7,0.45,1635170356.0
433.0,santa rosa,82.0,BO,1635170475.0,81.0,-13.843462707956235,-66.66637505761078,299.87,4.25,1635170475.0
434.0,chabahar,0.0,IR,1635170476.0,77.0,25.09673372960438,59.73982060191173,299.8,5.04,1635170476.0
435.0,kamenka,28.0,RU,1635170476.0,55.0,43.09663147814862,137.66368789274503,274.96,3.44,1635170476.0
436.0,solnechnyy,51.0,RU,1635170476.0,79.0,59.65222741155452,139.98870177250188,275.33,1.94,1635170476.0
437.0,asau,0.0,TV,1635170476.0,45.0,-5.416199066395677,179.77883008698376,285.04,1.98,1635170476.0
438.0,bad langensalza,100.0,DE,1635170477.0,68.0,51.05591227772524,10.590583934400712,287.95,3.67,1635170477.0
439.0,sechura,33.0,PE,1635170477.0,66.0,-8.413985275136895,-85.63627092631093,294.11,4.85,1635170477.0
440.0,mehamn,17.0,NO,1635170477.0,82.0,78.02241889324975,28.6921628921217,268.1,6.02,1635170477.0
441.0,tambura,25.0,SD,1635170432.0,40.0,6.302951956745517,27.0468943672077,306.23,2.09,1635170432.0
442.0,hammerfest,75.0,NO,1635170537.0,69.0,73.96358317169384,22.22535021951839,274.0,4.63,1635170537.0
443.0,dryden,75.0,CA,1635170422.0,100.0,50.191655840523254,-93.30970453100348,272.31,2.06,1635170422.0
444.0,ayan,29.0,RU,1635170538.0,70.0,56.640844862996204,139.31402882660188,277.37,1.7,1635170538.0
445.0,marawi,100.0,SD,1635170538.0,93.0,21.701115342276125,29.01238288927729,294.62,0.25,1635170538.0
446.0,neiafu,98.0,TO,1635170538.0,70.0,-18.96508593477256,-172.08865090289422,297.73,6.17,1635170538.0
447.0,nushki,1.0,PK,1635170539.0,16.0,29.812424872763813,65.54275923450766,293.52,3.04,1635170539.0
448.0,codrington,0.0,AG,1635170539.0,90.0,27.169923875455524,-49.51813141975862,277.93,2.18,1635170539.0
449.0,dalbandin,0.0,PK,1635170539.0,14.0,29.032127517492725,63.9940035691848,297.01,4.59,1635170539.0
450.0,tiznit,0.0,MA,1635170539.0,31.0,28.80164343503357,-9.360848335799261,298.97,4.02,1635170539.0
451.0,san quintin,96.0,MX,1635170540.0,82.0,24.62342561202496,-123.11656990201246,288.39,3.57,1635170540.0
452.0,cururupu,98.0,BR,1635170540.0,62.0,5.35596413026353,-40.88607447317892,303.49,3.59,1635170540.0
453.0,tacoronte,40.0,ES,1635170540.0,65.0,30.100616246042065,-16.78053014128372,294.68,5.81,1635170540.0
454.0,bjornevatn,0.0,NO,1635170540.0,93.0,69.05786832172055,29.31926298581743,269.94,2.06,1635170540.0
455.0,chiredzi,100.0,ZW,1635170541.0,69.0,-20.507276008608102,31.860647011383747,294.79,4.05,1635170541.0
456.0,betafo,99.0,MG,1635170541.0,37.0,-20.192389051153924,46.844044411888575,298.66,1.73,1635170541.0
457.0,tiarei,69.0,PF,1635170541.0,77.0,-11.243387772653222,-147.03582057085757,296.16,1.68,1635170541.0
458.0,bagotville,100.0,CA,1635170542.0,71.0,49.32853331307379,-70.37834658423698,294.06,2.68,1635170542.0
459.0,sorong,100.0,ID,1635170388.0,80.0,-1.1873131980783143,130.09613734271414,300.67,5.51,1635170388.0
460.0,lazarev,3.0,RU,1635170542.0,77.0,51.851769302435855,142.0031996658675,278.37,5.35,1635170542.0
461.0,knysna,0.0,ZA,1635170542.0,62.0,-37.80882632678584,22.83024895777484,292.61,5.29,1635170542.0
462.0,viseu,70.0,BR,1635170543.0,39.0,-0.019489692095518762,-45.89120216492026,293.07,2.07,1635170543.0
463.0,bandarbeyla,6.0,SO,1635170543.0,69.0,6.271553274306584,57.614177799220016,299.5,4.38,1635170543.0
464.0,shetpe,100.0,KZ,1635170543.0,81.0,44.65947357604088,52.08788759619057,284.79,9.14,1635170543.0
465.0,belyy yar,0.0,RU,1635170543.0,66.0,59.15700835104167,84.38042658234366,282.09,3.0,1635170543.0
466.0,troitsko-pechorsk,100.0,RU,1635170544.0,90.0,63.596424859695816,56.20327833024342,269.27,1.5,1635170544.0
467.0,general roca,98.0,AR,1635170544.0,25.0,-37.78078652725251,-66.32202995435664,296.83,14.29,1635170544.0
468.0,iqaluit,84.0,CA,1635170415.0,86.0,62.997980445668844,-75.99298678430274,270.76,2.24,1635170415.0
469.0,vaasa,75.0,FI,1635170544.0,87.0,63.766318602395216,21.141955410796555,282.16,4.63,1635170544.0
470.0,wasilla,75.0,US,1635170545.0,77.0,63.43558971891761,-150.16867782802436,274.68,0.45,1635170545.0
471.0,talnakh,100.0,RU,1635170545.0,95.0,81.43172623058308,89.81724147370772,268.04,5.34,1635170545.0
472.0,baykit,100.0,RU,1635170545.0,97.0,65.29244561157614,96.69290538159032,272.74,1.38,1635170545.0
473.0,corning,99.0,US,1635170545.0,93.0,41.831768156493524,-77.22240287779367,289.18,2.54,1635170545.0
474.0,ilulissat,20.0,GL,1635170546.0,61.0,71.97621543922511,-48.78140747953981,261.16,2.06,1635170546.0
475.0,passo fundo,0.0,BR,1635170546.0,63.0,-28.253297999064202,-52.32930534114158,292.04,4.67,1635170546.0
476.0,uglovskoye,55.0,RU,1635170546.0,45.0,51.291581529660306,80.60185068312188,281.49,3.79,1635170546.0
477.0,san policarpo,94.0,PH,1635170546.0,82.0,14.612396726497892,129.21532866460774,300.27,3.31,1635170546.0
478.0,sur,0.0,OM,1635170417.0,61.0,17.134906019700622,63.79852835733564,301.99,1.45,1635170417.0
479.0,sevierville,79.0,US,1635170255.0,82.0,35.90586044852358,-83.58048847373013,292.1,1.97,1635170255.0
480.0,avera,85.0,PF,1635170547.0,82.0,-30.978294006232844,-155.4140377710164,294.1,1.26,1635170547.0
481.0,port hedland,0.0,AU,1635170547.0,69.0,-25.295154616764023,121.08711906438617,298.18,4.12,1635170547.0
482.0,maragogi,37.0,BR,1635170547.0,56.0,-15.384966542836992,-27.544917087179982,302.09,5.64,1635170547.0
483.0,abu samrah,31.0,QA,1635170547.0,25.0,20.680671701614372,50.96406342950067,297.19,2.39,1635170547.0
484.0,quatre cocos,24.0,MU,1635170548.0,72.0,-18.114646864195947,63.54403578495615,297.64,6.47,1635170548.0
485.0,grand gaube,36.0,MU,1635170548.0,68.0,-16.539694069600813,61.42754855630389,297.8,4.02,1635170548.0
486.0,birin,2.0,DZ,1635170548.0,90.0,35.667044872754204,3.1198542782511822,286.14,2.19,1635170548.0
487.0,sinnamary,38.0,GF,1635170548.0,84.0,13.580870393477085,-48.82504539036486,300.54,4.48,1635170548.0
488.0,nanortalik,38.0,GL,1635170549.0,66.0,55.87422392421547,-38.48038818435768,272.86,4.02,1635170549.0
489.0,baraki barak,0.0,AF,1635170549.0,35.0,34.072001698928474,69.02223195250014,285.05,2.51,1635170549.0
490.0,sisimiut,6.0,GL,1635170549.0,76.0,67.50938648576653,-53.241370989559584,265.09,4.86,1635170549.0
491.0,barka kana,59.0,IN,1635170550.0,59.0,23.55303560428075,85.37280081977246,300.06,1.59,1635170550.0
492.0,komsomolskiy,0.0,RU,1635170550.0,26.0,76.19871216597463,173.43715917713553,288.55,0.0,1635170550.0
493.0,kendari,49.0,ID,1635170550.0,90.0,-4.053049101023518,123.48657528014809,298.23,1.14,1635170550.0
494.0,kirovsk,1.0,RU,1635170550.0,36.0,67.94383622346237,33.645084598559464,278.15,2.97,1635170550.0
495.0,bonthe,100.0,SL,1635170551.0,76.0,7.665138794103072,-13.15065414326537,300.96,3.65,1635170551.0
496.0,yumen,100.0,CN,1635170551.0,35.0,38.25666603317234,95.15896581308147,280.95,3.89,1635170551.0
497.0,listvyanka,21.0,RU,1635170551.0,72.0,51.890640167232846,104.98122380612381,275.87,1.81,1635170551.0
498.0,petropavlovsk-kamchatskiy,24.0,RU,1635170573.0,82.0,47.8062648583136,162.26300573252348,271.29,5.89,1635170573.0
499.0,sao joao da barra,98.0,BR,1635170516.0,77.0,-32.85663129035745,-25.199739965477278,295.94,5.78,1635170516.0
500.0,havoysund,16.0,NO,1635170611.0,77.0,73.95175187195557,24.381671547504823,272.64,7.78,1635170611.0
501.0,srivardhan,1.0,IN,1635170612.0,77.0,16.543564403634505,68.75334205180562,299.08,4.89,1635170612.0
502.0,shaowu,11.0,CN,1635170612.0,90.0,27.585996107293866,117.98856703907597,288.03,0.36,1635170612.0
503.0,saint-joseph,62.0,RE,1635170612.0,76.0,-27.661454563254118,53.41531189861362,298.36,5.15,1635170612.0
504.0,bodden town,98.0,KY,1635170612.0,78.0,17.01928229131417,-81.52870769048079,304.25,2.24,1635170612.0
505.0,sao jose de ribamar,17.0,BR,1635170613.0,65.0,-2.192130903349266,-44.034678552896565,306.36,6.14,1635170613.0
506.0,kaitangata,94.0,NZ,1635170613.0,94.0,-53.97571632928721,174.2812171874465,283.49,2.9,1635170613.0
507.0,seoul,0.0,KR,1635170338.0,81.0,38.13873077745902,130.22099067446152,285.84,1.03,1635170338.0
508.0,benoy,25.0,TD,1635170613.0,41.0,9.058362301056547,16.71560895175614,306.85,1.07,1635170613.0
509.0,ust-kuyga,90.0,RU,1635170613.0,100.0,68.6821772108097,137.4240900362306,252.37,0.52,1635170613.0
510.0,hervey bay,100.0,AU,1635170614.0,92.0,-24.26541365344545,158.60194930841027,295.39,4.23,1635170614.0
511.0,ternate,93.0,ID,1635170614.0,77.0,2.8246142586256155,129.8650038611753,300.85,2.2,1635170614.0
512.0,callaguip,63.0,PH,1635170614.0,79.0,18.270714641200826,120.04148747892879,299.88,2.38,1635170614.0
513.0,lima,90.0,PE,1635170351.0,85.0,-17.92339471649754,-87.03191731597116,289.21,2.06,1635170351.0
514.0,sambava,8.0,MG,1635170615.0,74.0,-11.004608223789887,53.33829176903771,298.83,5.44,1635170615.0
515.0,pochutla,35.0,MX,1635170615.0,70.0,13.748366837404518,-95.40558610203159,299.16,0.54,1635170615.0
516.0,khuzhir,15.0,RU,1635170615.0,70.0,53.12371959815923,107.34956218905091,277.97,3.96,1635170615.0
517.0,henties bay,0.0,NA,1635170615.0,69.0,-22.932531002295292,5.503833212192205,291.4,4.84,1635170615.0
518.0,zheleznodorozhnyy,100.0,RU,1635170616.0,57.0,62.40296694052188,51.22407599345877,276.38,3.64,1635170616.0
519.0,lavrentiya,100.0,RU,1635170616.0,79.0,72.50274159818193,-169.49486258405324,266.11,4.58,1635170616.0
520.0,whitehorse,75.0,CA,1635170616.0,92.0,61.91005757332027,-135.23974043741111,269.27,0.0,1635170616.0
521.0,gloucester,20.0,US,1635170490.0,77.0,42.712397210286156,-70.64874957516113,289.52,3.6,1635170490.0
522.0,can tho,75.0,VN,1635170553.0,89.0,9.895110673860074,105.97787434679674,300.14,0.51,1635170553.0
523.0,speightstown,100.0,BB,1635170617.0,69.0,13.333683627432023,-59.84733933994029,301.77,9.76,1635170617.0
524.0,bac lieu,85.0,VN,1635170617.0,82.0,7.739563146285377,106.87985200041618,300.24,3.05,1635170617.0
525.0,podor,58.0,SN,1635170617.0,21.0,17.688532078133022,-14.525494970193279,311.13,1.4,1635170617.0
526.0,zabid,5.0,YE,1635170618.0,51.0,13.162690415690335,43.30550717306045,305.06,6.96,1635170618.0
527.0,hamilton,100.0,BM,1635170469.0,95.0,30.177797377935633,-69.59859483923738,288.48,0.45,1635170469.0
528.0,zhigalovo,98.0,RU,1635170618.0,85.0,55.21625940491788,106.04563956305026,275.95,2.11,1635170618.0
529.0,puerto del rosario,20.0,ES,1635170618.0,65.0,27.101895812398666,-12.783564456234814,298.01,5.14,1635170618.0
530.0,minab,0.0,IR,1635170619.0,62.0,25.647723472982662,58.378602663656324,301.57,4.75,1635170619.0
531.0,ewa beach,90.0,US,1635170619.0,79.0,13.560294475257308,-160.97627502873362,297.42,4.02,1635170619.0
532.0,santa cruz cabralia,75.0,BR,1635170619.0,83.0,-17.126989277243013,-35.68044239120084,301.28,6.69,1635170619.0
533.0,xingcheng,100.0,CN,1635170620.0,67.0,40.291936893615144,120.84783702676748,286.89,4.86,1635170620.0
534.0,ascension,90.0,MX,1635170620.0,99.0,30.98519652469932,-108.51792413062131,298.15,0.0,1635170620.0
535.0,nukus,0.0,UZ,1635170620.0,22.0,42.41476379537639,59.833456988474126,291.14,1.03,1635170620.0
536.0,siayan,81.0,PH,1635170620.0,88.0,8.244670805391891,123.1833772373273,298.59,0.31,1635170620.0
537.0,turukhansk,100.0,RU,1635170621.0,95.0,61.95581913673581,87.7068095984863,266.54,5.14,1635170621.0
538.0,ciechanow,94.0,PL,1635170621.0,47.0,52.71857237823943,20.679954113872725,285.85,4.89,1635170621.0
539.0,mabaruma,94.0,GY,1635170621.0,93.0,7.337029410029899,-59.56566955730433,299.38,2.64,1635170621.0
540.0,soyaniquilpan,100.0,MX,1635170621.0,71.0,20.002610949078147,-99.53672844907115,286.81,1.53,1635170621.0
541.0,montrose,39.0,US,1635170472.0,58.0,38.6966426946594,-107.06568713272324,281.34,2.15,1635170472.0
542.0,nizhnetroitskiy,100.0,RU,1635170622.0,91.0,54.38369313448109,53.620611711641175,275.95,5.85,1635170622.0
543.0,garowe,32.0,SO,1635170622.0,28.0,7.627653200514189,48.25550093039783,305.31,2.94,1635170622.0
544.0,port blair,11.0,IN,1635170622.0,80.0,7.846928115641788,89.32482426791933,300.64,2.35,1635170622.0
545.0,valle de allende,0.0,MX,1635170622.0,37.0,26.94155663385567,-104.99050896342376,290.28,2.86,1635170622.0
546.0,bahia blanca,13.0,AR,1635170459.0,22.0,-39.105626103172234,-62.77571691727489,297.55,8.47,1635170459.0
547.0,porto tolle,100.0,IT,1635170623.0,51.0,44.97919054667079,12.327474245421627,289.88,2.01,1635170623.0
548.0,almaznyy,2.0,RU,1635170623.0,39.0,61.84866374024,114.76480801362925,279.23,3.48,1635170623.0
549.0,gigmoto,100.0,PH,1635170623.0,90.0,17.04946204766395,129.55802808919702,298.86,2.98,1635170623.0
550.0,bandrele,0.0,YT,1635170684.0,74.0,-13.947895880896013,46.13925652089304,302.01,4.12,1635170684.0
551.0,barcelos,98.0,BR,1635170684.0,56.0,0.01116474671808021,-61.656437801895336,294.09,3.48,1635170684.0
552.0,nemuro,42.0,JP,1635170684.0,79.0,34.22850425288976,151.70676556989235,283.96,2.6,1635170684.0
553.0,olafsvik,100.0,IS,1635170684.0,71.0,62.7397410883508,-28.129811229197372,275.9,9.64,1635170684.0
554.0,louga,100.0,SN,1635170685.0,76.0,15.785449413040212,-15.819896991658055,279.45,5.3,1635170685.0
555.0,tura,0.0,RU,1635170685.0,94.0,67.50490840310911,95.69277996696951,293.17,0.98,1635170685.0
556.0,timra,75.0,SE,1635170685.0,84.0,63.54162259853362,16.24552771680277,284.08,1.03,1635170685.0
