City_ID,City,Cloudiness,Country,Date,Humidity,Lat,Lng,Max Temp,Wind Speed
0.0,amderma,99.0,RU,1635518132.0,100.0,84.32,66.06,-9.76,6.67
1.0,taolanaro,100.0,MG,1635518132.0,83.0,-61.13,58.95,29.16,21.83
2.0,basse-pointe,20.0,MQ,1635518132.0,71.0,14.99,-61.07,87.85,12.91
3.0,illoqqortoormiut,37.0,GL,1635518132.0,88.0,75.71,-27.61,-24.05,18.01
4.0,mataura,83.0,PF,1635518133.0,88.0,-60.95,-147.15,21.85,12.03
5.0,lebu,2.0,CL,1635518133.0,76.0,-36.52,-97.0,56.3,10.04
6.0,ushuaia,97.0,AR,1635518133.0,82.0,-83.67,-72.47,0.86,21.25
7.0,mitsamiouli,14.0,KM,1635518133.0,71.0,-8.14,45.14,79.48,4.36
8.0,cape town,100.0,ZA,1635518134.0,82.0,-63.35,-16.81,25.09,26.49
9.0,serenje,10.0,ZM,1635518134.0,28.0,-12.83,30.93,80.13,9.93
10.0,east london,94.0,ZA,1635518134.0,74.0,-77.79,57.66,-35.3,18.1
11.0,atuona,100.0,PF,1635518135.0,75.0,-5.36,-117.06,74.53,13.09
12.0,punta arenas,20.0,CL,1635518135.0,82.0,-53.07,-88.44,41.56,23.94
13.0,belushya guba,100.0,RU,1635518135.0,100.0,85.43,45.15,-7.83,8.77
14.0,avarua,30.0,CK,1635518135.0,68.0,-28.71,-159.08,64.49,11.03
15.0,puerto carreno,29.0,CO,1635518136.0,56.0,6.27,-65.88,86.52,2.04
16.0,gumdag,83.0,TM,1635518136.0,35.0,38.45,54.31,58.55,7.78
17.0,puerto ayora,100.0,EC,1635518136.0,80.0,-9.22,-94.41,68.14,16.02
18.0,yellowknife,100.0,CA,1635518137.0,95.0,73.27,-111.29,17.74,6.44
19.0,ilulissat,60.0,GL,1635518137.0,95.0,82.9,-42.56,-19.03,4.43
20.0,upernavik,0.0,GL,1635518137.0,67.0,75.15,-56.01,-1.73,13.18
21.0,yar-sale,100.0,RU,1635518138.0,74.0,77.24,70.65,19.06,10.13
22.0,amahai,82.0,ID,1635518138.0,78.0,-2.12,128.0,82.2,6.78
23.0,bluff,99.0,NZ,1635518138.0,78.0,-82.74,153.94,-27.42,8.59
24.0,isangel,1.0,VU,1635518138.0,73.0,-18.44,174.4,78.82,11.39
25.0,woodward,0.0,US,1635518139.0,31.0,37.01,-99.39,49.24,17.98
26.0,helong,100.0,CN,1635518139.0,55.0,42.78,129.05,38.16,1.39
27.0,severo-kurilsk,100.0,RU,1635518139.0,93.0,42.02,162.42,58.95,18.34
28.0,ayagoz,7.0,KZ,1635518139.0,45.0,47.6,79.49,44.11,5.84
29.0,colwyn bay,100.0,GB,1635518140.0,89.0,53.35,-3.93,55.51,17.9
30.0,arraial do cabo,76.0,BR,1635518140.0,71.0,-46.05,-22.48,42.3,21.14
31.0,pacific grove,100.0,US,1635518140.0,76.0,29.96,-130.8,66.4,3.58
32.0,jamestown,8.0,SH,1635518140.0,91.0,-52.66,-16.69,33.6,16.08
33.0,vaini,100.0,TO,1635518141.0,75.0,-61.05,-169.16,25.43,52.55
34.0,port elizabeth,100.0,ZA,1635518141.0,91.0,-69.93,31.74,22.89,2.46
35.0,hirara,27.0,JP,1635518141.0,64.0,19.94,128.04,79.95,12.03
36.0,pochutla,100.0,MX,1635518142.0,85.0,7.38,-96.67,79.11,14.74
37.0,havelock,100.0,US,1635518142.0,77.0,32.68,-71.83,74.8,22.62
38.0,barentsburg,41.0,SJ,1635518142.0,99.0,87.89,3.17,-0.45,10.92
39.0,hithadhoo,100.0,MV,1635518142.0,78.0,-4.79,67.67,82.29,16.22
40.0,ponta delgada,57.0,PT,1635518143.0,83.0,34.42,-26.19,74.01,26.35
41.0,cap malheureux,8.0,MU,1635518143.0,83.0,-18.06,58.19,76.21,10.18
42.0,pingshan,44.0,CN,1635518143.0,78.0,22.55,114.89,76.75,15.46
43.0,kapaa,2.0,US,1635518143.0,76.0,22.02,-166.67,77.67,14.52
44.0,busselton,100.0,AU,1635518144.0,91.0,-41.37,96.75,52.48,36.06
45.0,celestun,0.0,MX,1635518144.0,44.0,24.89,-92.55,78.01,29.01
46.0,la orilla,47.0,MX,1635518144.0,68.0,15.7,-104.16,82.27,3.89
47.0,tuktoyaktuk,100.0,CA,1635518144.0,99.0,82.9,-126.87,4.89,7.36
48.0,hermanus,100.0,ZA,1635518145.0,98.0,-89.29,11.47,-27.4,10.58
49.0,monopoli,5.0,IT,1635518145.0,60.0,41.05,17.54,68.7,6.82
50.0,pangkalanbuun,100.0,ID,1635518145.0,88.0,-1.75,110.11,77.22,0.92
51.0,yantal,100.0,RU,1635518145.0,65.0,58.97,105.28,23.41,7.09
52.0,hofn,17.0,IS,1635518146.0,77.0,60.81,-14.78,49.33,16.62
53.0,la plaine,3.0,DM,1635518146.0,67.0,15.42,-60.41,81.12,13.02
54.0,avera,86.0,PF,1635518146.0,80.0,-34.48,-156.29,60.49,14.05
55.0,abu samrah,0.0,QA,1635518146.0,30.0,20.85,50.84,86.23,9.4
56.0,makokou,98.0,GA,1635518147.0,94.0,0.22,12.77,86.22,3.11
57.0,hilo,100.0,US,1635518147.0,78.0,13.89,-152.84,78.76,19.13
58.0,iqaluit,57.0,CA,1635518147.0,74.0,60.07,-68.58,36.82,15.88
59.0,naze,72.0,JP,1635518147.0,69.0,27.51,132.31,72.52,9.93
60.0,norrkoping,7.0,SE,1635518208.0,78.0,58.47,16.23,55.49,1.01
61.0,lorengau,46.0,PG,1635518208.0,63.0,1.81,148.35,83.88,4.05
62.0,sao joao da barra,95.0,BR,1635518208.0,75.0,-27.23,-30.6,66.79,15.08
63.0,cairns,68.0,AU,1635518208.0,81.0,-13.42,145.45,80.44,17.11
64.0,ko samui,70.0,TH,1635518209.0,77.0,9.85,99.91,83.91,9.64
65.0,rikitea,100.0,PF,1635518209.0,99.0,-88.64,-133.83,-25.29,11.74
66.0,thinadhoo,100.0,MV,1635518209.0,74.0,0.48,72.69,83.08,11.36
67.0,attawapiskat,100.0,CA,1635518209.0,96.0,59.48,-81.58,39.88,20.54
68.0,tiksi,100.0,RU,1635518210.0,94.0,85.65,132.64,10.67,7.7
69.0,jaque,100.0,PA,1635518210.0,81.0,6.78,-78.97,80.1,8.72
70.0,ilo,3.0,PE,1635518210.0,74.0,-19.01,-72.8,61.2,6.4
71.0,tall kayf,100.0,IQ,1635518210.0,49.0,36.49,42.51,67.06,14.36
72.0,salinopolis,100.0,BR,1635518211.0,75.0,4.71,-45.78,81.88,9.53
73.0,albany,100.0,AU,1635518211.0,98.0,-64.03,103.48,4.19,8.03
74.0,komsomolskiy,95.0,RU,1635518211.0,85.0,69.95,172.03,0.52,2.46
75.0,dikson,94.0,RU,1635518211.0,100.0,84.12,71.48,-8.82,6.06
76.0,mineiros,99.0,BR,1635518212.0,54.0,-17.62,-52.87,81.03,5.95
77.0,jumla,0.0,NP,1635518212.0,34.0,30.14,83.65,26.96,4.47
78.0,mar del plata,100.0,AR,1635518212.0,89.0,-63.1,-30.38,32.04,18.95
79.0,sudislavl,100.0,RU,1635518213.0,92.0,57.65,41.59,40.14,12.15
80.0,kaitangata,53.0,NZ,1635518213.0,69.0,-62.21,178.39,27.21,42.35
81.0,saryshagan,10.0,KZ,1635518213.0,46.0,45.97,73.5,45.59,10.2
82.0,bengkulu,100.0,ID,1635518213.0,91.0,-14.33,87.68,78.15,25.43
83.0,southbridge,100.0,NZ,1635518214.0,95.0,-44.97,172.62,50.92,8.03
84.0,abu zabad,4.0,SD,1635518214.0,17.0,12.45,30.18,93.38,7.38
85.0,atbasar,100.0,KZ,1635518214.0,50.0,49.79,68.39,38.52,13.51
86.0,kichera,0.0,RU,1635518214.0,63.0,55.33,110.65,-1.97,0.65
87.0,kaduy,100.0,RU,1635518215.0,85.0,59.81,37.32,47.32,12.15
88.0,bose,100.0,CN,1635518215.0,95.0,24.0,106.83,62.37,2.55
89.0,arlit,75.0,NE,1635518215.0,10.0,20.76,6.26,94.84,2.82
90.0,qaanaaq,96.0,GL,1635518215.0,87.0,79.34,-90.1,11.14,5.88
91.0,tuatapere,100.0,NZ,1635518216.0,66.0,-54.69,160.87,38.77,13.09
92.0,itarema,100.0,BR,1635518216.0,79.0,4.08,-38.31,78.51,6.04
93.0,anloga,100.0,GH,1635518216.0,75.0,5.04,1.27,82.56,7.63
94.0,acarau,69.0,BR,1635518216.0,75.0,10.27,-38.75,80.02,7.4
95.0,proletariy,100.0,RU,1635518216.0,86.0,58.34,31.74,49.5,9.93
96.0,najran,0.0,SA,1635518217.0,15.0,17.08,45.84,79.83,10.51
97.0,troitsko-pechorsk,95.0,RU,1635518217.0,88.0,63.01,56.64,19.18,4.9
98.0,dalvik,100.0,IS,1635518217.0,94.0,69.03,-18.32,33.94,32.37
99.0,adrar,0.0,DZ,1635518218.0,22.0,26.2,1.08,90.57,3.51
100.0,sydney,0.0,AU,1635518218.0,54.0,-33.74,150.9,67.44,8.05
101.0,victoria,10.0,SC,1635518218.0,70.0,-10.08,54.1,79.54,1.36
102.0,yaan,50.0,CN,1635518218.0,84.0,30.55,102.82,30.18,3.0
103.0,cidreira,93.0,BR,1635518219.0,89.0,-55.1,-24.05,32.18,21.81
104.0,zerbst,74.0,DE,1635518219.0,53.0,51.99,11.92,63.09,7.38
105.0,gondanglegi,100.0,ID,1635518219.0,82.0,-10.44,112.55,80.69,17.34
106.0,bredasdorp,100.0,ZA,1635518219.0,84.0,-58.44,24.86,30.76,21.34
107.0,hokitika,15.0,NZ,1635518220.0,84.0,-40.82,167.41,58.26,12.91
108.0,kopychyntsi,13.0,UA,1635518220.0,62.0,49.15,25.87,54.14,12.88
109.0,huaiyin,100.0,CN,1635518220.0,57.0,33.15,118.81,62.47,2.73
110.0,eirunepe,98.0,BR,1635518220.0,60.0,-7.1,-69.53,84.85,0.81
111.0,chuy,6.0,UY,1635518221.0,85.0,-39.77,-45.34,59.61,12.84
112.0,alta floresta,40.0,BR,1635518221.0,39.0,-7.93,-54.73,93.47,3.65
113.0,lazaro cardenas,10.0,MX,1635518221.0,76.0,1.58,-110.84,71.46,6.89
114.0,koslan,100.0,RU,1635518222.0,93.0,64.97,50.11,22.78,9.37
115.0,port alfred,67.0,ZA,1635518222.0,92.0,-77.45,46.42,-45.35,12.84
116.0,longyearbyen,100.0,SJ,1635518223.0,100.0,88.87,18.93,-7.08,6.62
117.0,cairo montenotte,100.0,IT,1635518223.0,99.0,44.3,8.09,60.33,4.36
118.0,kurchum,100.0,KZ,1635518223.0,58.0,47.75,83.34,50.94,4.63
119.0,saint-philippe,100.0,RE,1635518223.0,88.0,-55.99,68.45,32.02,31.63
120.0,tayoltita,0.0,MX,1635518284.0,43.0,24.32,-105.54,56.12,3.87
121.0,bolungarvik,46.0,IS,1635518284.0,71.0,70.39,-30.51,-13.99,12.39
122.0,saldanha,37.0,ZA,1635518284.0,84.0,-37.58,0.75,59.22,32.1
123.0,lazarev,0.0,RU,1635518284.0,93.0,52.13,142.08,31.95,6.89
124.0,talcahuano,100.0,CL,1635518285.0,81.0,-30.74,-84.1,60.01,12.33
125.0,castro,5.0,CL,1635518285.0,63.0,-44.82,-93.56,45.84,10.38
126.0,caravelas,5.0,BR,1635518285.0,71.0,-21.7,-26.26,71.92,12.41
127.0,general roca,100.0,AR,1635518285.0,11.0,-41.26,-67.34,73.83,18.07
128.0,touros,99.0,BR,1635518286.0,71.0,2.47,-32.66,81.19,12.55
129.0,tasiilaq,100.0,GL,1635518286.0,100.0,75.23,-40.88,-33.74,10.63
130.0,georgetown,78.0,SH,1635518286.0,72.0,-1.84,-21.86,78.67,14.56
131.0,akyab,7.0,MM,1635518286.0,72.0,19.12,93.05,84.63,10.22
132.0,kavieng,70.0,PG,1635518287.0,78.0,3.31,151.83,82.44,7.87
133.0,westpunt,100.0,AN,1635518287.0,78.0,12.53,-69.27,84.31,20.67
134.0,casma,98.0,PE,1635518287.0,90.0,-9.83,-78.81,61.7,14.88
135.0,rawannawi,0.0,KI,1635518288.0,69.0,3.25,177.57,81.81,14.92
136.0,kununurra,1.0,AU,1635518288.0,17.0,-19.82,128.81,84.36,9.42
137.0,fairbanks,100.0,US,1635518288.0,92.0,61.71,-144.02,24.21,5.79
138.0,bermejo,7.0,BO,1635518288.0,24.0,-22.2,-64.62,90.23,5.75
139.0,blythe,0.0,US,1635518289.0,26.0,33.53,-113.69,70.63,2.68
140.0,nanortalik,100.0,GL,1635518289.0,75.0,54.63,-42.19,44.17,20.11
141.0,carnarvon,68.0,AU,1635518289.0,75.0,-28.33,87.48,65.57,11.18
142.0,krasnoye,100.0,RU,1635518290.0,42.0,54.86,85.06,39.33,16.51
143.0,cabo san lucas,46.0,MX,1635518290.0,68.0,22.02,-110.62,77.63,5.17
144.0,la paz,0.0,MX,1635518290.0,59.0,24.01,-111.16,76.21,5.32
145.0,baykit,100.0,RU,1635518290.0,96.0,63.69,95.88,16.66,4.12
146.0,sterling,100.0,US,1635518291.0,58.0,58.9,-149.44,39.79,5.93
147.0,pampa,1.0,US,1635518291.0,52.0,36.27,-100.68,44.78,9.22
148.0,geraldton,100.0,AU,1635518291.0,66.0,-32.93,93.97,60.62,9.82
149.0,chokurdakh,100.0,RU,1635518291.0,99.0,81.84,149.77,-1.91,4.59
150.0,new norfolk,100.0,AU,1635518292.0,100.0,-73.08,131.98,-37.64,8.34
151.0,deputatskiy,100.0,RU,1635518292.0,96.0,66.6,140.27,-2.09,5.32
152.0,khatanga,71.0,RU,1635518292.0,99.0,70.43,106.2,-14.85,8.7
153.0,yertsevo,100.0,RU,1635518293.0,98.0,60.95,39.89,43.81,10.33
154.0,gorno-altaysk,89.0,RU,1635518293.0,86.0,52.0,86.23,34.2,3.91
155.0,butaritari,69.0,KI,1635518293.0,79.0,12.12,160.46,83.7,22.91
156.0,dimona,49.0,IL,1635518293.0,28.0,31.2,35.12,79.65,9.06
157.0,baruun-urt,100.0,MN,1635518294.0,34.0,47.28,113.36,33.28,17.9
158.0,tanem,100.0,NO,1635518294.0,86.0,63.2,10.5,44.38,5.61
159.0,zwedru,78.0,LR,1635518294.0,76.0,6.11,-8.59,82.36,4.52
160.0,artyk,95.0,RU,1635518294.0,86.0,65.53,145.87,3.2,8.3
161.0,roald,97.0,NO,1635518295.0,68.0,73.38,-0.0,37.29,9.73
162.0,hobart,17.0,AU,1635518295.0,61.0,-49.79,147.22,43.41,16.37
163.0,ahumada,0.0,MX,1635518295.0,20.0,30.99,-106.53,57.13,5.79
164.0,nizhneyansk,100.0,RU,1635518296.0,94.0,85.7,134.05,10.42,7.43
165.0,vardo,100.0,NO,1635518296.0,100.0,84.77,37.66,-0.69,11.54
166.0,oistins,15.0,BB,1635518296.0,74.0,12.5,-57.94,80.78,12.33
167.0,palasa,84.0,IN,1635518297.0,72.0,16.08,87.02,84.34,11.27
168.0,soyo,92.0,AO,1635518297.0,81.0,-8.2,8.39,73.31,6.31
169.0,lensk,18.0,RU,1635518297.0,93.0,59.92,114.83,4.03,4.83
170.0,chabahar,0.0,IR,1635518297.0,65.0,24.58,60.71,80.67,8.72
171.0,riyadh,11.0,SA,1635518298.0,16.0,25.58,45.56,80.26,8.59
172.0,necochea,100.0,AR,1635518298.0,88.0,-43.8,-57.83,53.82,23.58
173.0,adamas,99.0,GR,1635518298.0,68.0,36.46,24.17,64.06,18.79
174.0,pevek,93.0,RU,1635518298.0,98.0,76.27,170.97,-5.39,5.03
175.0,buriti dos lopes,66.0,BR,1635518299.0,26.0,-3.23,-41.64,90.48,0.85
176.0,obo,98.0,CF,1635518299.0,50.0,6.86,25.86,84.97,3.06
177.0,mahebourg,38.0,MU,1635518299.0,86.0,-30.74,66.44,68.68,13.67
178.0,tashtagol,96.0,RU,1635518299.0,86.0,52.38,88.56,32.4,4.88
179.0,luchow,40.0,DE,1635518300.0,59.0,52.95,11.13,62.69,9.91
180.0,iskateley,96.0,RU,1635518360.0,96.0,68.27,53.05,14.04,5.53
181.0,camargo,40.0,BO,1635518360.0,44.0,-20.11,-64.92,53.55,6.17
182.0,solnechnyy,100.0,RU,1635518360.0,100.0,62.77,139.03,-7.96,2.15
183.0,torbay,72.0,CA,1635518361.0,79.0,39.44,-50.42,72.97,29.59
184.0,marshalltown,100.0,US,1635518361.0,89.0,42.32,-92.99,48.54,19.04
185.0,port augusta,0.0,AU,1635518361.0,60.0,-31.43,138.19,54.25,8.9
186.0,lebedinyy,100.0,RU,1635518361.0,96.0,57.81,125.14,6.49,9.06
187.0,shiyan,0.0,CN,1635518362.0,80.0,32.92,110.08,52.05,2.37
188.0,paamiut,100.0,GL,1635518362.0,87.0,60.01,-53.4,40.86,20.54
189.0,sovetskiy,100.0,RU,1635518362.0,82.0,69.57,65.24,21.72,23.04
190.0,valentin gomez farias,0.0,MX,1635518363.0,25.0,28.09,-106.83,53.71,3.94
191.0,mys shmidta,100.0,RU,1635518363.0,97.0,85.23,-176.9,9.45,7.65
192.0,sinnamary,4.0,GF,1635518363.0,71.0,19.24,-42.56,79.14,13.06
193.0,tsiroanomandidy,1.0,MG,1635518364.0,61.0,-17.58,43.94,75.43,13.6
194.0,paracatu,59.0,BR,1635518364.0,33.0,-17.51,-46.64,90.21,5.79
195.0,guanay,97.0,BO,1635518364.0,51.0,-15.03,-67.61,75.24,3.31
196.0,ulladulla,0.0,AU,1635518364.0,57.0,-35.85,151.64,58.82,38.27
197.0,barrow,99.0,US,1635518365.0,99.0,73.63,-152.2,10.87,5.44
198.0,xai-xai,11.0,MZ,1635518365.0,65.0,-27.29,35.49,70.66,23.29
199.0,karaul,100.0,RU,1635518365.0,91.0,71.91,84.05,2.68,16.2
200.0,pangody,100.0,RU,1635518365.0,97.0,66.95,74.99,26.19,8.23
201.0,college,100.0,US,1635518366.0,96.0,66.22,-153.13,15.91,1.36
202.0,raga,97.0,SD,1635518366.0,20.0,9.59,25.49,91.62,5.39
203.0,bethel,100.0,US,1635518366.0,77.0,53.97,-166.87,36.63,22.15
204.0,ndele,89.0,CF,1635518366.0,42.0,8.86,20.39,91.69,3.0
205.0,rabo de peixe,100.0,PT,1635518367.0,59.0,43.48,-22.62,59.81,16.35
206.0,hualmay,100.0,PE,1635518367.0,83.0,-12.63,-80.51,62.24,14.58
207.0,churapcha,100.0,RU,1635518367.0,96.0,62.39,132.77,16.57,5.23
208.0,batemans bay,81.0,AU,1635518368.0,68.0,-39.8,155.06,55.26,41.18
209.0,srednekolymsk,100.0,RU,1635518368.0,91.0,68.92,152.59,-4.09,5.48
210.0,faanui,100.0,PF,1635518368.0,78.0,-2.21,-154.32,77.86,13.58
211.0,mundo nuevo,50.0,MX,1635518368.0,48.0,20.27,-94.35,81.3,16.53
212.0,esperance,92.0,AU,1635518369.0,71.0,-32.72,123.6,52.16,6.6
213.0,beloha,49.0,MG,1635518369.0,69.0,-31.6,42.88,63.55,19.64
214.0,port-gentil,69.0,GA,1635518369.0,79.0,-0.04,8.17,80.69,7.43
215.0,pilar,89.0,PH,1635518369.0,76.0,10.47,130.74,83.71,9.08
216.0,nizhnekamsk,0.0,RU,1635518370.0,55.0,55.55,51.88,30.36,2.24
217.0,sur,26.0,OM,1635518370.0,59.0,22.1,60.7,81.54,11.1
218.0,waycross,1.0,US,1635518370.0,55.0,31.18,-82.57,63.75,13.8
219.0,inirida,98.0,CO,1635518370.0,90.0,3.19,-67.53,75.47,1.07
220.0,solovetskiy,100.0,RU,1635518371.0,98.0,65.65,35.71,41.13,19.69
221.0,kodiak,100.0,US,1635518371.0,91.0,52.93,-145.67,46.0,23.67
222.0,ribeira grande,75.0,PT,1635518371.0,73.0,30.5,-32.96,74.73,13.35
223.0,tornio,92.0,FI,1635518371.0,98.0,67.01,23.92,32.41,1.99
224.0,salta,0.0,AR,1635518372.0,23.0,-25.01,-66.64,47.16,6.38
225.0,alofi,100.0,NU,1635518372.0,72.0,-15.47,-165.69,79.36,20.18
226.0,aklavik,100.0,CA,1635518372.0,95.0,82.97,-143.57,16.07,7.05
227.0,vaitupu,15.0,WF,1635518372.0,75.0,5.86,-174.85,82.63,13.33
228.0,thompson,53.0,CA,1635518373.0,97.0,74.69,-95.84,20.16,8.88
229.0,umzimvubu,100.0,ZA,1635518373.0,94.0,-49.96,44.82,36.03,21.18
230.0,buin,41.0,PG,1635518373.0,70.0,-7.12,154.77,84.15,10.87
231.0,popova,14.0,RU,1635518373.0,63.0,42.6,131.85,55.27,10.4
232.0,noumea,100.0,NC,1635518374.0,87.0,-28.6,161.95,70.84,18.63
233.0,vila franca do campo,48.0,PT,1635518374.0,77.0,31.74,-25.28,73.06,19.17
234.0,rungata,18.0,KI,1635518374.0,69.0,0.64,177.37,80.74,12.12
235.0,chitral,94.0,PK,1635518374.0,87.0,36.4,72.92,5.09,0.72
236.0,saleaula,0.0,WS,1635518375.0,76.0,5.19,-168.27,82.38,14.38
237.0,halalo,65.0,WF,1635518375.0,78.0,-15.5,-179.74,80.15,15.05
238.0,ponta do sol,12.0,CV,1635518375.0,67.0,22.27,-31.1,76.39,15.26
239.0,burica,98.0,PA,1635518375.0,84.0,4.46,-86.36,77.95,19.15
240.0,reyes,99.0,BO,1635518436.0,55.0,-14.12,-67.32,89.8,2.06
241.0,zyrardow,43.0,PL,1635518436.0,55.0,51.95,20.41,58.77,7.81
242.0,karaton,100.0,KZ,1635518436.0,50.0,45.18,53.2,53.33,12.84
243.0,leningradskiy,100.0,RU,1635518437.0,96.0,85.79,177.74,9.84,7.52
244.0,mehamn,91.0,NO,1635518437.0,95.0,83.91,28.35,6.04,17.09
245.0,yunjinghong,33.0,CN,1635518437.0,98.0,22.48,100.15,58.01,1.66
246.0,chase,100.0,CA,1635518437.0,99.0,51.05,-119.54,27.36,1.28
247.0,soe,18.0,ID,1635518438.0,73.0,-12.29,125.51,84.58,5.48
248.0,praia,95.0,CV,1635518438.0,74.0,11.33,-23.54,80.85,8.7
249.0,sumbawa,79.0,ID,1635518438.0,79.0,-10.02,117.51,82.89,15.37
250.0,sentyabrskiy,100.0,RU,1635518438.0,80.0,41.68,150.27,52.81,28.77
251.0,minggang,20.0,CN,1635518439.0,67.0,32.51,113.96,61.09,3.96
252.0,homer,100.0,US,1635518439.0,60.0,58.56,-150.64,39.72,9.98
253.0,paignton,84.0,GB,1635518439.0,95.0,50.19,-3.64,60.73,21.63
254.0,riviere-du-loup,0.0,CA,1635518439.0,58.0,47.97,-69.83,40.37,5.84
255.0,nabire,100.0,ID,1635518440.0,97.0,-3.72,138.03,54.19,3.71
256.0,nantucket,100.0,US,1635518440.0,64.0,38.04,-65.42,65.07,17.67
257.0,waitati,91.0,NZ,1635518440.0,92.0,-46.54,172.47,49.82,9.89
258.0,san patricio,100.0,MX,1635518440.0,79.0,10.49,-110.72,79.68,6.44
259.0,corinto,64.0,NI,1635518441.0,75.0,10.73,-88.21,82.06,1.03
260.0,mogadishu,14.0,SO,1635518441.0,76.0,1.13,45.48,80.51,9.84
261.0,qasigiannguit,100.0,GL,1635518441.0,96.0,67.3,-48.82,16.02,6.31
262.0,beringovskiy,80.0,RU,1635518441.0,82.0,62.45,178.14,12.99,3.15
263.0,belaya gora,100.0,RU,1635518442.0,98.0,69.22,144.13,0.54,1.63
264.0,zhigansk,100.0,RU,1635518442.0,99.0,72.89,121.49,-1.97,6.17
265.0,nikolskoye,4.0,RU,1635518442.0,71.0,56.03,164.77,40.62,8.48
266.0,grootfontein,53.0,NA,1635518443.0,27.0,-19.92,20.04,88.56,1.48
267.0,provideniya,100.0,RU,1635518443.0,79.0,61.15,-172.86,27.61,15.59
268.0,ramshir,100.0,IR,1635518443.0,57.0,30.77,49.37,85.91,12.71
269.0,chumikan,100.0,RU,1635518443.0,95.0,56.01,135.68,20.55,8.34
270.0,asau,94.0,TV,1635518444.0,79.0,-14.49,179.23,80.62,15.68
271.0,erzin,5.0,RU,1635518444.0,48.0,48.35,94.65,36.28,4.03
272.0,padang,100.0,ID,1635518444.0,79.0,-6.35,94.03,82.85,15.03
273.0,havre-saint-pierre,3.0,CA,1635518444.0,34.0,52.51,-62.33,43.79,3.71
274.0,garmsar,75.0,IR,1635518445.0,33.0,35.36,52.36,56.95,3.02
275.0,whittlesea,89.0,ZA,1635518445.0,42.0,-32.1,26.58,67.73,17.85
276.0,aden,6.0,YE,1635518445.0,58.0,12.88,45.42,85.21,15.5
277.0,flin flon,6.0,CA,1635518445.0,77.0,57.34,-101.72,29.89,9.42
278.0,haines junction,100.0,CA,1635518446.0,96.0,60.29,-138.6,19.09,1.95
279.0,swan hill,4.0,AU,1635518446.0,53.0,-34.94,144.23,48.9,13.15
280.0,winnemucca,48.0,US,1635518446.0,67.0,40.92,-117.36,33.49,4.61
281.0,innisfail,45.0,AU,1635518446.0,76.0,-17.31,146.26,74.17,2.17
282.0,elko,6.0,US,1635518447.0,76.0,41.17,-115.68,39.36,2.73
283.0,tera,60.0,NE,1635518447.0,19.0,13.67,0.66,100.09,7.87
284.0,chenzhou,100.0,CN,1635518447.0,98.0,26.14,113.4,55.36,2.06
285.0,samusu,1.0,WS,1635518447.0,68.0,-4.35,-164.67,78.94,10.07
286.0,leh,2.0,IN,1635518448.0,76.0,35.58,78.3,-7.96,4.63
287.0,bambous virieux,100.0,MU,1635518448.0,66.0,-38.96,82.87,51.06,19.66
288.0,port hardy,6.0,CA,1635518448.0,58.0,45.47,-136.67,48.27,8.21
289.0,mayo,71.0,CA,1635518448.0,93.0,65.54,-135.24,4.95,3.02
290.0,bayshore gardens,17.0,US,1635518449.0,60.0,27.11,-83.07,81.01,29.55
291.0,maniitsoq,77.0,GL,1635518449.0,73.0,59.95,-57.8,41.22,18.97
292.0,gulshat,13.0,KZ,1635518449.0,49.0,46.42,74.04,46.47,10.98
293.0,saskylakh,97.0,RU,1635518449.0,91.0,71.34,109.1,-8.34,8.16
294.0,bijar,100.0,IR,1635518450.0,50.0,35.67,48.09,55.63,9.6
295.0,souillac,100.0,MU,1635518450.0,91.0,-31.39,63.16,65.57,6.69
296.0,aleksandrovskiy zavod,100.0,RU,1635518450.0,55.0,50.84,117.69,28.2,10.07
297.0,auki,98.0,SB,1635518450.0,73.0,-5.45,162.12,83.84,13.94
298.0,odweyne,6.0,SO,1635518451.0,34.0,9.95,45.91,78.71,12.28
299.0,temaraia,9.0,KI,1635518451.0,71.0,-0.33,173.57,80.85,14.34
300.0,luderitz,100.0,NA,1635518511.0,79.0,-27.76,6.0,63.01,8.12
301.0,kiama,0.0,AU,1635518511.0,64.0,-36.17,154.31,61.05,36.98
302.0,martapura,100.0,ID,1635518512.0,93.0,-3.61,115.01,73.42,1.5
303.0,shitanjing,17.0,CN,1635518512.0,33.0,41.11,104.62,45.54,3.83
304.0,nguiu,42.0,AU,1635518512.0,64.0,-9.57,129.24,84.29,3.09
305.0,cayenne,14.0,GF,1635518512.0,66.0,9.3,-44.39,80.02,10.0
306.0,pareora,92.0,NZ,1635518513.0,90.0,-45.14,172.03,51.26,7.0
307.0,baryatino,94.0,RU,1635518513.0,93.0,54.42,34.47,48.45,7.47
308.0,kinablangan,36.0,PH,1635518513.0,73.0,8.13,129.67,83.88,7.2
309.0,trebinje,1.0,BA,1635518513.0,59.0,42.34,18.46,69.84,2.57
310.0,katsuura,52.0,JP,1635518514.0,71.0,29.18,145.54,73.36,18.92
311.0,muros,100.0,ES,1635518514.0,84.0,42.95,-18.07,62.15,14.05
312.0,vila velha,82.0,BR,1635518514.0,68.0,-29.73,-21.72,63.21,16.78
313.0,carutapera,47.0,BR,1635518514.0,74.0,1.86,-43.69,81.79,6.89
314.0,airai,99.0,PW,1635518515.0,75.0,14.07,141.56,83.62,13.65
315.0,tefe,9.0,BR,1635518515.0,47.0,-4.27,-64.19,92.93,1.43
316.0,xinzhi,0.0,CN,1635518515.0,67.0,36.57,111.85,52.86,2.37
317.0,ballina,100.0,AU,1635518515.0,90.0,-30.67,157.96,71.1,25.3
318.0,karistos,45.0,GR,1635518516.0,67.0,37.99,24.65,63.41,20.8
319.0,san fernando,0.0,MX,1635518516.0,40.0,24.44,-97.56,72.88,15.5
320.0,arkhangelos,73.0,GR,1635518516.0,68.0,35.08,29.07,70.12,4.99
321.0,taoudenni,95.0,ML,1635518516.0,19.0,21.86,-5.63,91.38,7.14
322.0,antofagasta,100.0,CL,1635518517.0,77.0,-22.89,-75.24,59.61,9.66
323.0,mikhaylovka,58.0,KZ,1635518517.0,65.0,44.42,71.76,48.45,9.1
324.0,lata,63.0,SB,1635518517.0,72.0,-4.68,167.54,83.35,12.73
325.0,anupgarh,0.0,IN,1635518517.0,20.0,29.18,73.33,81.07,7.14
326.0,umm lajj,57.0,SA,1635518518.0,65.0,24.89,36.98,83.53,4.68
327.0,axim,71.0,GH,1635518518.0,84.0,-5.58,-1.8,74.71,14.18
328.0,khorixas,1.0,NA,1635518518.0,23.0,-21.13,14.57,71.33,16.06
329.0,cockeysville,100.0,US,1635518518.0,94.0,39.51,-76.57,57.31,10.0
330.0,ozinki,100.0,RU,1635518519.0,85.0,50.62,49.77,43.2,7.0
331.0,tsihombe,72.0,MG,1635518519.0,71.0,-41.32,48.48,47.43,4.68
332.0,senneterre,1.0,CA,1635518519.0,55.0,47.8,-76.36,44.29,6.15
333.0,viligili,98.0,MV,1635518519.0,78.0,0.13,79.29,82.13,15.21
334.0,coahuayana,100.0,MX,1635518520.0,81.0,5.71,-109.35,76.44,15.43
335.0,tahta,77.0,EG,1635518520.0,15.0,22.61,26.75,84.9,6.58
336.0,hami,9.0,CN,1635518520.0,29.0,37.55,91.89,28.54,5.46
337.0,saint george,100.0,BM,1635518520.0,71.0,34.74,-58.55,73.13,26.35
338.0,khonuu,100.0,RU,1635518521.0,79.0,66.78,142.29,6.85,2.86
339.0,sayyan,0.0,YE,1635518521.0,14.0,15.07,45.96,79.84,5.44
340.0,brigantine,99.0,US,1635518521.0,75.0,36.68,-72.08,70.39,23.78
341.0,te anau,88.0,NZ,1635518522.0,96.0,-41.54,160.87,60.04,25.95
342.0,kawalu,82.0,ID,1635518522.0,72.0,-14.38,106.78,75.87,16.87
343.0,great yarmouth,100.0,GB,1635518523.0,83.0,53.46,3.12,59.0,39.68
344.0,alice springs,1.0,AU,1635518523.0,24.0,-23.22,132.84,72.52,14.99
345.0,tekeli,100.0,KZ,1635518523.0,91.0,44.75,79.52,26.67,5.06
346.0,port blair,100.0,IN,1635518523.0,73.0,14.18,92.55,84.18,6.15
347.0,taltal,71.0,CL,1635518524.0,77.0,-25.58,-72.8,58.73,6.15
348.0,palabuhanratu,100.0,ID,1635518524.0,84.0,-8.09,105.78,80.78,17.52
349.0,vestmannaeyjar,92.0,IS,1635518524.0,64.0,56.43,-21.82,49.37,19.24
350.0,casper,8.0,US,1635518524.0,71.0,43.06,-107.05,42.84,9.26
351.0,ancud,6.0,CL,1635518525.0,71.0,-41.91,-101.2,49.89,14.94
352.0,codrington,4.0,AG,1635518525.0,74.0,25.2,-53.41,79.81,15.19
353.0,pisco,100.0,PE,1635518525.0,75.0,-19.17,-83.17,60.94,13.22
354.0,tuggurt,9.0,DZ,1635518525.0,24.0,33.67,4.85,80.64,11.01
355.0,clyde river,20.0,CA,1635518526.0,82.0,72.72,-80.0,31.15,12.12
356.0,richards bay,100.0,ZA,1635518526.0,66.0,-30.39,39.32,65.17,17.98
357.0,sinjai,94.0,ID,1635518526.0,83.0,-5.08,120.34,79.59,3.62
358.0,portales,0.0,US,1635518527.0,36.0,33.89,-103.49,46.44,8.3
359.0,guelengdeng,78.0,TD,1635518527.0,16.0,11.04,15.08,100.53,7.09
360.0,ust-tsilma,99.0,RU,1635518587.0,90.0,66.32,51.88,17.2,5.39
361.0,suhbaatar,19.0,MN,1635518587.0,54.0,49.08,106.19,28.18,2.35
362.0,luneburg,82.0,DE,1635518588.0,63.0,53.29,10.3,62.85,7.99
363.0,ati,8.0,TD,1635518588.0,9.0,13.55,18.46,98.11,8.32
364.0,middelburg,4.0,ZA,1635518588.0,14.0,-31.6,25.29,75.09,24.05
365.0,dormidontovka,0.0,RU,1635518589.0,79.0,47.58,135.39,34.9,4.32
366.0,yakima,100.0,US,1635518589.0,97.0,46.42,-121.37,40.14,6.69
367.0,constitucion,0.0,MX,1635518589.0,59.0,24.07,-111.81,76.57,4.32
368.0,ahipara,89.0,NZ,1635518589.0,94.0,-37.35,168.79,61.99,16.15
369.0,suez,89.0,EG,1635518590.0,24.0,28.49,32.73,78.69,6.73
370.0,bagalkot,100.0,IN,1635518590.0,58.0,16.22,75.6,81.3,12.86
371.0,norman wells,100.0,CA,1635518590.0,95.0,64.98,-123.98,22.68,8.16
372.0,ogaminana,98.0,NG,1635518590.0,44.0,7.52,6.42,90.25,4.14
373.0,hazorasp,0.0,UZ,1635518591.0,41.0,40.94,61.01,50.32,7.2
374.0,baiyin,26.0,CN,1635518591.0,57.0,37.01,103.44,30.7,2.06
375.0,dunedin,63.0,NZ,1635518591.0,60.0,-55.3,179.7,40.87,22.64
376.0,coremas,52.0,BR,1635518592.0,23.0,-6.98,-37.92,97.88,3.06
377.0,alugan,100.0,PH,1635518592.0,70.0,15.46,129.48,81.48,15.66
378.0,pitimbu,100.0,BR,1635518592.0,74.0,-7.61,-27.25,78.75,14.38
379.0,acari,79.0,BR,1635518592.0,25.0,-6.36,-36.67,94.41,11.34
380.0,sawakin,0.0,SD,1635518593.0,30.0,20.52,36.3,87.96,14.03
381.0,shahdadkot,3.0,PK,1635518593.0,19.0,27.85,67.37,75.76,1.7
382.0,monrovia,71.0,LR,1635518593.0,76.0,2.24,-13.47,80.35,14.58
383.0,kil,100.0,NO,1635518593.0,94.0,58.99,9.07,51.66,4.12
384.0,maningrida,15.0,AU,1635518594.0,71.0,-9.89,134.0,82.9,8.34
385.0,belyy yar,100.0,RU,1635518594.0,95.0,62.24,84.95,29.98,10.63
386.0,sadove,5.0,UA,1635518594.0,85.0,45.14,34.73,49.5,4.83
387.0,lat yao,100.0,TH,1635518594.0,94.0,15.9,99.57,74.21,3.49
388.0,kazachka,39.0,RU,1635518595.0,77.0,53.3,38.32,44.29,7.02
389.0,ambilobe,19.0,MG,1635518595.0,80.0,-11.87,49.42,81.84,13.4
390.0,saint anthony,1.0,CA,1635518595.0,45.0,52.24,-55.78,46.54,1.99
391.0,la romana,13.0,DO,1635518596.0,69.0,16.83,-68.63,83.07,16.78
392.0,banjar,100.0,ID,1635518596.0,74.0,-13.26,106.26,76.87,16.8
393.0,taraz,53.0,KZ,1635518596.0,90.0,42.11,71.02,-0.15,1.59
394.0,dudinka,100.0,RU,1635518596.0,91.0,70.98,86.86,2.68,14.41
395.0,tra vinh,100.0,VN,1635518597.0,79.0,8.88,106.98,82.2,18.61
396.0,lagos,100.0,NG,1635518597.0,71.0,4.09,3.33,82.36,5.48
397.0,namatanai,100.0,PG,1635518597.0,64.0,-0.74,155.51,84.97,11.88
398.0,sisimiut,100.0,GL,1635518597.0,88.0,65.75,-58.62,33.98,7.11
399.0,misratah,100.0,LY,1635518598.0,72.0,34.22,17.46,70.32,19.66
400.0,melinesti,5.0,RO,1635518598.0,47.0,44.57,23.66,58.44,7.2
401.0,sao felix do xingu,10.0,BR,1635518598.0,29.0,-7.51,-52.72,97.03,2.84
402.0,katsiveli,0.0,UA,1635518598.0,59.0,44.0,33.85,56.89,8.14
403.0,pouembout,98.0,NC,1635518599.0,79.0,-25.89,160.8,71.89,14.14
404.0,bonthe,100.0,SL,1635518599.0,90.0,3.76,-16.87,76.26,9.04
405.0,eyl,1.0,SO,1635518599.0,70.0,6.3,53.56,79.59,7.43
406.0,nome,90.0,US,1635518599.0,98.0,68.52,-162.07,-0.99,6.58
407.0,auxerre,100.0,FR,1635518600.0,78.0,47.74,3.64,57.31,15.35
408.0,xuanhua,9.0,CN,1635518600.0,48.0,40.0,114.69,47.41,2.01
409.0,grand forks,100.0,CA,1635518600.0,98.0,48.33,-118.36,43.59,1.88
410.0,poopo,10.0,BO,1635518600.0,29.0,-18.68,-67.68,60.91,6.96
411.0,maragogi,2.0,BR,1635518601.0,64.0,-10.26,-33.93,78.98,14.09
412.0,canutama,73.0,BR,1635518601.0,46.0,-5.9,-64.03,92.84,1.83
413.0,zeya,99.0,RU,1635518601.0,68.0,54.66,129.44,28.98,9.6
414.0,gizo,10.0,SB,1635518601.0,73.0,-8.35,156.66,84.67,12.24
415.0,sao raimundo das mangabeiras,20.0,BR,1635518602.0,26.0,-7.78,-45.25,96.03,6.11
416.0,adeje,7.0,ES,1635518602.0,63.0,26.45,-17.7,70.79,9.4
417.0,meulaboh,84.0,ID,1635518602.0,74.0,1.3,92.81,82.76,7.4
418.0,ransang,85.0,PH,1635518603.0,78.0,10.06,116.67,83.61,10.83
419.0,bhag,0.0,PK,1635518603.0,17.0,29.21,68.19,82.33,3.13
420.0,linfen,0.0,CN,1635518663.0,61.0,35.86,111.89,50.5,2.86
421.0,morgan city,4.0,US,1635518663.0,51.0,29.76,-91.36,64.0,17.05
422.0,mersing,90.0,MY,1635518664.0,70.0,2.86,105.93,84.72,8.41
423.0,leninskoye,100.0,RU,1635518664.0,57.0,58.31,46.96,31.24,11.36
424.0,nha trang,100.0,VN,1635518664.0,82.0,12.32,110.82,81.95,12.44
425.0,port macquarie,100.0,AU,1635518664.0,93.0,-32.84,163.0,67.96,21.77
426.0,yerbogachen,58.0,RU,1635518665.0,97.0,63.8,108.68,3.85,3.67
427.0,sinkat,0.0,SD,1635518665.0,40.0,19.38,36.29,80.6,15.73
428.0,iranshahr,5.0,IR,1635518665.0,24.0,27.98,59.89,67.73,6.6
429.0,drayton valley,100.0,CA,1635518665.0,76.0,52.79,-115.61,29.17,2.75
430.0,tandil,94.0,AR,1635518666.0,36.0,-37.77,-58.77,85.55,16.62
431.0,kavaratti,100.0,IN,1635518666.0,78.0,12.87,69.95,82.53,10.63
432.0,darhan,6.0,MN,1635518666.0,50.0,44.59,109.91,42.06,20.8
433.0,buchanan,82.0,LR,1635518666.0,80.0,-0.08,-13.87,79.05,15.35
434.0,omsukchan,100.0,RU,1635518667.0,93.0,65.43,155.99,5.04,1.28
435.0,marathon,100.0,CA,1635518667.0,64.0,47.64,-86.05,51.53,12.3
436.0,morant bay,16.0,JM,1635518667.0,76.0,15.99,-75.73,83.37,17.0
437.0,mount gambier,77.0,AU,1635518667.0,85.0,-46.38,132.63,48.47,23.35
438.0,tumannyy,100.0,RU,1635518668.0,97.0,70.91,35.69,37.36,14.25
439.0,pierre,0.0,US,1635518668.0,50.0,44.51,-100.87,44.71,8.68
440.0,agirish,2.0,RU,1635518668.0,60.0,63.04,62.49,23.02,13.89
441.0,hervey bay,24.0,AU,1635518668.0,78.0,-20.6,156.3,76.19,9.53
442.0,smithers,86.0,CA,1635518669.0,98.0,56.15,-126.27,12.42,2.28
443.0,biak,85.0,ID,1635518669.0,66.0,-0.01,138.51,83.62,1.95
444.0,bacuit,97.0,PH,1635518669.0,79.0,11.68,117.09,82.6,10.83
445.0,cockburn town,84.0,TC,1635518670.0,80.0,25.11,-70.28,80.92,13.0
446.0,flinders,1.0,AU,1635518670.0,68.0,-30.96,131.63,50.61,10.13
447.0,pangnirtung,100.0,CA,1635518670.0,83.0,62.23,-60.85,37.33,20.13
448.0,pindushi,100.0,RU,1635518670.0,88.0,62.96,34.56,48.69,11.34
449.0,rialma,31.0,BR,1635518671.0,30.0,-15.42,-49.56,92.89,3.53
450.0,grindavik,29.0,IS,1635518671.0,60.0,52.34,-23.85,50.59,20.94
451.0,hukuntsi,1.0,BW,1635518671.0,12.0,-25.14,20.54,89.44,18.68
452.0,bonavista,11.0,CA,1635518671.0,85.0,51.64,-52.26,41.2,10.92
453.0,mizan teferi,100.0,ET,1635518672.0,94.0,7.4,35.78,55.98,2.15
454.0,port townsend,75.0,US,1635518672.0,98.0,47.89,-122.91,47.25,0.0
455.0,ust-omchug,99.0,RU,1635518672.0,100.0,61.41,149.38,-4.94,2.77
456.0,blois,75.0,FR,1635518672.0,88.0,47.2,1.49,62.89,9.22
457.0,urengoy,100.0,RU,1635518673.0,95.0,65.74,79.6,31.75,18.88
458.0,augusto correa,99.0,BR,1635518673.0,77.0,0.28,-46.1,81.55,8.16
459.0,port hedland,95.0,AU,1635518673.0,36.0,-22.2,120.09,77.25,19.48
460.0,boddam,100.0,GB,1635518673.0,90.0,57.27,-0.56,53.78,33.51
461.0,krasnoselkup,100.0,RU,1635518674.0,96.0,65.81,80.44,30.96,17.02
462.0,grand river south east,0.0,MU,1635518674.0,76.0,-21.09,64.04,74.3,15.77
463.0,haukipudas,100.0,FI,1635518674.0,92.0,65.25,24.92,46.53,8.37
464.0,pervomayskoye,100.0,RU,1635518674.0,65.0,57.87,86.94,34.54,12.33
465.0,rocha,8.0,UY,1635518675.0,92.0,-46.39,-44.22,53.04,21.43
466.0,brae,100.0,GB,1635518675.0,96.0,62.55,-2.35,48.04,11.12
467.0,awjilah,100.0,LY,1635518675.0,40.0,30.1,21.49,79.63,6.55
468.0,kismayo,3.0,SO,1635518675.0,70.0,-1.77,44.71,80.37,7.36
469.0,sitka,10.0,US,1635518676.0,57.0,45.6,-139.22,47.62,6.58
470.0,bitam,81.0,GA,1635518676.0,69.0,1.97,11.61,81.07,1.52
471.0,puerto madryn,74.0,AR,1635518676.0,15.0,-42.5,-65.66,83.07,8.55
472.0,sola,5.0,VU,1635518676.0,77.0,-13.47,167.57,82.62,17.45
473.0,marawi,0.0,SD,1635518677.0,14.0,19.52,29.39,92.86,5.48
474.0,jutai,100.0,BR,1635518677.0,57.0,-4.42,-68.52,88.16,1.52
475.0,barranca,99.0,PE,1635518677.0,60.0,-3.63,-76.98,84.94,1.52
476.0,yanam,100.0,IN,1635518677.0,75.0,12.87,85.78,84.65,14.05
477.0,araria,0.0,IN,1635518678.0,60.0,26.23,87.5,71.89,7.23
478.0,ulaanbaatar,85.0,MN,1635518678.0,96.0,48.77,107.34,21.31,0.81
479.0,novopokrovka,10.0,RU,1635518678.0,67.0,52.03,41.13,43.52,1.86
480.0,cheuskiny,100.0,RU,1635518738.0,92.0,62.59,71.44,19.49,28.57
481.0,ust-kamchatsk,2.0,RU,1635518739.0,68.0,54.93,162.32,40.12,2.84
482.0,dingle,9.0,IE,1635518739.0,62.0,47.58,-18.54,56.17,23.76
483.0,verkhnyaya inta,24.0,RU,1635518739.0,84.0,65.4,62.51,16.23,11.68
484.0,reo,83.0,BF,1635518739.0,26.0,12.26,-2.84,98.22,8.57
485.0,ozernovskiy,100.0,RU,1635518740.0,92.0,50.16,158.39,43.86,7.56
486.0,broken hill,0.0,AU,1635518740.0,40.0,-29.23,143.98,65.19,19.8
487.0,eureka,58.0,US,1635518740.0,59.0,40.88,-137.29,54.88,18.07
488.0,langsa,89.0,ID,1635518741.0,89.0,4.18,98.24,79.43,2.39
489.0,sibiti,99.0,CG,1635518741.0,91.0,-3.68,13.66,73.76,4.45
490.0,panzhihua,52.0,CN,1635518741.0,86.0,26.95,100.7,50.61,2.06
491.0,puerto escondido,69.0,MX,1635518741.0,85.0,6.39,-100.5,78.06,13.78
492.0,mackay,10.0,AU,1635518742.0,82.0,-19.34,152.89,78.39,10.09
493.0,labuhan,100.0,ID,1635518742.0,74.0,-17.43,95.53,75.07,23.06
494.0,san vicente,86.0,PH,1635518742.0,60.0,19.49,127.84,80.65,14.05
495.0,shingu,76.0,JP,1635518743.0,79.0,25.1,139.49,76.48,24.38
496.0,vilcun,89.0,CL,1635518743.0,9.0,-38.48,-70.65,71.94,6.93
497.0,fort frances,0.0,CA,1635518743.0,81.0,48.45,-94.26,41.99,1.43
498.0,ferkessedougou,34.0,CI,1635518744.0,40.0,9.5,-4.76,92.95,5.46
499.0,loutros,40.0,GR,1635518744.0,45.0,40.92,26.07,62.47,12.66
500.0,campbell river,71.0,CA,1635518744.0,88.0,51.74,-125.61,21.4,4.18
501.0,yangcun,1.0,CN,1635518744.0,67.0,39.7,117.43,51.8,2.77
502.0,surgut,100.0,RU,1635518745.0,83.0,59.58,73.97,21.94,13.76
503.0,zhangye,26.0,CN,1635518745.0,44.0,37.4,98.89,14.0,3.8
504.0,regina,88.0,CA,1635518745.0,61.0,50.04,-104.76,41.13,9.01
505.0,hyeres,63.0,FR,1635518745.0,71.0,42.64,6.19,66.0,11.95
506.0,hovd,63.0,MN,1635518746.0,44.0,44.86,100.27,37.11,1.83
507.0,maceio,29.0,BR,1635518746.0,70.0,-12.57,-31.39,77.63,12.95
508.0,olinda,24.0,BR,1635518746.0,73.0,-10.39,-26.25,77.04,16.08
509.0,fortuna,95.0,US,1635518746.0,90.0,35.2,-132.89,65.57,10.65
510.0,takoradi,94.0,GH,1635518747.0,80.0,0.98,-0.32,79.21,7.74
511.0,upata,67.0,VE,1635518747.0,55.0,5.6,-63.04,86.31,2.53
512.0,machiques,94.0,VE,1635518747.0,91.0,10.15,-72.67,71.62,2.98
513.0,kieta,44.0,PG,1635518747.0,77.0,-5.7,157.82,83.23,11.79
514.0,sorvag,14.0,FO,1635518748.0,88.0,62.19,-9.68,49.01,14.63
515.0,scottsburgh,60.0,ZA,1635518748.0,80.0,-31.83,32.7,67.98,30.67
516.0,alexandria,100.0,EG,1635518748.0,74.0,31.63,29.73,78.73,11.99
517.0,prince rupert,15.0,CA,1635518748.0,70.0,52.0,-130.84,44.6,13.8
518.0,udachnyy,85.0,RU,1635518749.0,100.0,66.89,113.48,-14.82,3.83
519.0,iquitos,99.0,PE,1635518749.0,86.0,-3.01,-72.19,75.88,1.07
520.0,jacareacanga,7.0,BR,1635518749.0,48.0,-7.77,-58.02,90.9,3.98
521.0,hay river,100.0,CA,1635518749.0,93.0,60.03,-114.26,31.95,5.5
522.0,bardiyah,94.0,LY,1635518750.0,34.0,28.82,24.98,82.36,7.34
523.0,ayna,96.0,PE,1635518750.0,69.0,-12.54,-73.58,55.51,1.07
524.0,hondo,0.0,US,1635518750.0,42.0,29.68,-99.37,63.82,18.84
525.0,dali,0.0,CN,1635518751.0,95.0,24.87,100.16,54.12,1.99
526.0,utiroa,100.0,KI,1635518751.0,67.0,-4.29,171.51,82.81,13.65
527.0,portland,83.0,AU,1635518751.0,63.0,-51.02,134.74,41.14,19.98
528.0,ganzhou,100.0,CN,1635518751.0,95.0,25.98,115.58,60.78,1.81
529.0,san luis,0.0,MX,1635518752.0,20.0,28.78,-114.0,73.04,0.81
530.0,duluth,50.0,US,1635518752.0,82.0,47.25,-90.67,52.16,20.09
531.0,yunyang,1.0,CN,1635518752.0,74.0,33.65,112.22,50.47,3.38
532.0,dapaong,96.0,TG,1635518752.0,22.0,11.26,0.63,99.55,7.56
533.0,progreso,32.0,MX,1635518753.0,53.0,23.74,-89.77,78.66,27.09
534.0,teya,100.0,RU,1635518753.0,96.0,62.01,89.7,29.41,10.89
535.0,karasburg,0.0,NA,1635518753.0,8.0,-27.27,19.35,83.75,16.53
536.0,saint-pierre,46.0,PM,1635518754.0,79.0,38.21,-55.85,70.45,36.22
537.0,hamilton,100.0,BM,1635518754.0,69.0,33.94,-68.82,70.97,5.17
538.0,tiznit,0.0,MA,1635518754.0,16.0,26.95,-10.14,85.33,4.25
539.0,sabha,85.0,JO,1635518754.0,27.0,32.04,36.87,74.68,8.25
540.0,ler,95.0,SD,1635518815.0,65.0,7.85,29.85,81.0,1.79
541.0,sao filipe,11.0,CV,1635518815.0,69.0,10.76,-36.3,80.85,8.34
542.0,satitoa,100.0,WS,1635518815.0,72.0,-15.71,-168.45,79.45,20.45
543.0,bambui,100.0,BR,1635518815.0,50.0,-20.18,-45.83,81.3,4.72
544.0,presidencia roque saenz pena,44.0,AR,1635518816.0,16.0,-27.71,-60.83,97.27,5.66
545.0,fernie,100.0,CA,1635518816.0,99.0,50.13,-114.91,32.13,1.12
546.0,leshukonskoye,100.0,RU,1635518816.0,96.0,65.2,45.87,25.63,9.48
547.0,fort saint john,5.0,CA,1635518816.0,88.0,55.89,-121.78,24.66,5.12
548.0,jingdezhen,31.0,CN,1635518817.0,68.0,29.71,117.0,57.24,3.65
549.0,trincomalee,93.0,LK,1635518817.0,76.0,9.98,84.25,83.37,12.46
550.0,minsk,25.0,BY,1635518817.0,87.0,53.55,27.75,52.12,7.81
551.0,basay,59.0,PH,1635518818.0,74.0,8.83,122.16,83.97,5.77
552.0,khasan,99.0,RU,1635518818.0,53.0,40.54,131.02,58.62,8.05
553.0,alausi,85.0,EC,1635518818.0,59.0,-1.99,-78.78,45.16,3.67
554.0,batagay,98.0,RU,1635518818.0,94.0,66.16,135.58,-1.37,4.97
555.0,maymyo,45.0,MM,1635518819.0,97.0,21.61,96.64,69.35,1.95
556.0,yamada,100.0,JP,1635518819.0,64.0,38.74,145.44,57.13,28.23
557.0,phalodi,0.0,IN,1635518819.0,18.0,27.97,71.92,84.49,7.61
558.0,kirove,0.0,UA,1635518819.0,57.0,47.72,35.63,52.41,7.25
559.0,waingapu,100.0,ID,1635518820.0,72.0,-13.47,118.85,80.91,7.85
560.0,himora,5.0,ET,1635518820.0,25.0,14.11,36.25,92.43,1.92
561.0,allende,0.0,MX,1635518820.0,33.0,25.12,-100.21,55.15,2.44
562.0,margate,100.0,ZA,1635518821.0,67.0,-38.59,39.7,57.38,14.38
563.0,bandarbeyla,30.0,SO,1635518821.0,77.0,9.63,53.0,79.57,16.87
564.0,devyatka,100.0,RU,1635518821.0,71.0,56.37,94.05,34.29,6.51
565.0,fort dodge,89.0,US,1635518822.0,80.0,42.77,-94.33,48.11,18.14
566.0,anito,93.0,PH,1635518822.0,66.0,15.65,128.95,81.86,15.86
567.0,bathsheba,4.0,BB,1635518823.0,70.0,19.4,-50.77,80.01,9.93
568.0,north battleford,100.0,CA,1635518823.0,64.0,52.88,-108.58,37.44,5.91
569.0,morondava,76.0,MG,1635518823.0,62.0,-19.55,44.44,76.33,11.39
570.0,kemijarvi,55.0,FI,1635518823.0,92.0,68.11,27.92,31.86,9.1
571.0,san cristobal,100.0,EC,1635518824.0,83.0,-6.68,-91.1,69.37,14.92
572.0,westport,97.0,NZ,1635518824.0,94.0,-38.64,167.34,61.0,16.67
573.0,isla mujeres,19.0,MX,1635518824.0,59.0,21.23,-86.35,77.16,18.43
574.0,dhidhdhoo,95.0,MV,1635518824.0,77.0,6.8,73.87,81.21,7.2
575.0,filadelfia,4.0,PY,1635518825.0,28.0,-21.37,-60.57,101.16,11.21
576.0,berdigestyakh,100.0,RU,1635518825.0,89.0,62.0,124.46,15.53,8.3
577.0,mungwi,13.0,ZM,1635518825.0,19.0,-10.34,31.46,90.64,6.13
578.0,concordia,38.0,BR,1635518825.0,47.0,-27.36,-51.86,82.83,4.34
579.0,tartki,0.0,TJ,1635518826.0,50.0,37.51,67.77,53.91,1.7
580.0,puerto narino,83.0,CO,1635518826.0,64.0,-3.3,-70.7,84.78,2.24
581.0,kayes,67.0,ML,1635518826.0,17.0,14.63,-11.64,100.8,9.26
582.0,bay roberts,100.0,CA,1635518826.0,86.0,45.11,-53.04,47.05,38.05
583.0,gornopravdinsk,100.0,RU,1635518827.0,75.0,59.53,69.98,23.11,15.3
584.0,price,1.0,US,1635518827.0,87.0,38.46,-110.84,36.84,3.44
585.0,usinsk,100.0,RU,1635518827.0,75.0,70.1,57.47,27.63,8.9
586.0,rapar,0.0,IN,1635518828.0,27.0,23.39,70.71,82.72,4.34
587.0,galle,62.0,LK,1635518828.0,77.0,2.59,78.52,82.13,11.16
588.0,grand centre,0.0,CA,1635518828.0,71.0,56.63,-108.97,29.46,6.15
589.0,rorvik,100.0,NO,1635518829.0,88.0,66.55,10.45,47.79,9.53
590.0,tianpeng,99.0,CN,1635518829.0,92.0,31.53,103.57,44.82,2.71
591.0,san ignacio,100.0,BZ,1635518829.0,97.0,17.32,-89.2,74.01,3.27
592.0,luganville,18.0,VU,1635518830.0,80.0,-15.56,164.61,80.8,17.6
593.0,silver city,0.0,US,1635518830.0,40.0,32.85,-107.94,54.88,7.0
594.0,rawson,100.0,AR,1635518830.0,79.0,-49.52,-57.72,48.0,15.95
595.0,ingham,50.0,AU,1635518830.0,97.0,-18.6,145.72,64.18,2.37
596.0,teguise,72.0,ES,1635518831.0,72.0,31.0,-13.89,69.19,5.61
597.0,cilegon,86.0,ID,1635518831.0,77.0,-5.63,105.93,82.47,6.55
598.0,guerrero negro,80.0,MX,1635518831.0,68.0,13.22,-131.06,79.02,13.6
599.0,egvekinot,100.0,RU,1635518831.0,65.0,62.22,-179.8,22.24,6.38
600.0,lukhovitsy,99.0,RU,1635518892.0,78.0,54.99,39.0,45.0,12.17
601.0,arawa,71.0,PG,1635518892.0,69.0,-4.19,155.16,84.42,9.84
602.0,simao,34.0,CN,1635518892.0,99.0,22.69,102.07,65.25,0.89
603.0,puerto ayacucho,73.0,VE,1635518893.0,91.0,5.73,-66.92,74.52,0.87
604.0,tura,0.0,IN,1635518893.0,89.0,25.29,90.19,70.61,4.21
605.0,cherskiy,30.0,RU,1635518893.0,93.0,71.84,157.45,1.6,6.58
606.0,mocambique,13.0,MZ,1635518893.0,67.0,-14.77,42.4,77.18,19.8
607.0,tatsinskaya,30.0,RU,1635518894.0,68.0,48.29,41.43,52.2,7.99
608.0,kiruna,39.0,SE,1635518894.0,88.0,67.77,21.1,27.48,3.94
609.0,coquimbo,99.0,CL,1635518894.0,76.0,-25.8,-83.16,60.98,14.72
610.0,baft,100.0,IR,1635518895.0,36.0,29.06,56.7,61.66,2.64
611.0,kahului,93.0,US,1635518895.0,48.0,32.9,-149.97,65.28,1.23
612.0,katobu,100.0,ID,1635518895.0,72.0,-5.47,125.45,84.42,9.53
613.0,bauchi,81.0,NG,1635518895.0,14.0,10.25,9.42,92.75,7.96
614.0,idritsa,41.0,RU,1635518896.0,90.0,55.87,28.84,49.64,6.8
615.0,petropavlovsk-kamchatskiy,100.0,RU,1635518896.0,92.0,45.4,163.48,50.41,37.11
616.0,nueve de julio,90.0,AR,1635518896.0,30.0,-35.55,-60.56,85.86,11.25
617.0,kidodi,67.0,TZ,1635518896.0,43.0,-7.68,36.86,73.53,5.39
618.0,waipawa,100.0,NZ,1635518897.0,95.0,-42.48,176.52,55.92,15.95
619.0,raudeberg,100.0,NO,1635518897.0,91.0,66.07,2.9,47.71,17.94
620.0,fez,51.0,MA,1635518897.0,18.0,32.94,-4.02,75.49,7.87
621.0,mound,1.0,US,1635518898.0,86.0,45.0,-93.57,48.15,1.99
622.0,kargasok,100.0,RU,1635518898.0,97.0,61.42,82.37,31.91,13.2
623.0,ahar,70.0,IR,1635518898.0,68.0,38.78,47.53,50.36,8.66
624.0,grand gaube,7.0,MU,1635518898.0,72.0,-15.61,66.44,76.03,13.56
