City_ID,City,Cloudiness,Country,Date,Humidity,Lat,Lng,Max Temp,Wind Speed
0.0,mataura,25.0,PF,1635438719.0,98.0,-71.08,-161.0,46.26,0.18
1.0,kindu,82.0,CD,1635438719.0,99.0,-2.19,25.43,66.78,2.42
2.0,chokurdakh,99.0,RU,1635438719.0,93.0,87.78,156.26,-2.7,3.22
3.0,puerto ayora,93.0,EC,1635438720.0,87.0,-2.5,-112.33,76.96,4.0
4.0,san cristobal,56.0,EC,1635438720.0,60.0,-14.14,-91.48,77.18,6.31
5.0,gold coast,38.0,AU,1635438720.0,91.0,-27.61,154.55,75.0,1.01
6.0,dikson,59.0,RU,1635438720.0,94.0,75.22,84.7,6.31,7.9
7.0,vostok,16.0,RU,1635438510.0,93.0,48.49,151.76,29.41,2.89
8.0,williams lake,90.0,CA,1635438721.0,87.0,51.94,-122.98,36.97,4.61
9.0,hermanus,0.0,ZA,1635438721.0,84.0,-76.15,1.63,65.8,8.55
10.0,mahur,2.0,IN,1635438722.0,90.0,24.96,93.22,63.14,1.7
11.0,saint-augustin,1.0,CA,1635438723.0,41.0,50.23,-58.72,47.61,8.23
12.0,voh,5.0,NC,1635438723.0,92.0,-21.22,164.44,70.72,3.71
13.0,kuito,99.0,AO,1635438723.0,70.0,-11.72,16.28,65.64,4.9
14.0,kudymkar,97.0,RU,1635438724.0,83.0,58.76,54.72,23.25,12.26
15.0,victoria,33.0,US,1635438673.0,81.0,28.79,-97.39,78.33,1.01
16.0,yar-sale,100.0,RU,1635438724.0,95.0,73.82,71.71,21.7,16.64
17.0,kharian,0.0,PK,1635438724.0,41.0,32.91,74.18,69.15,3.69
18.0,buraydah,100.0,SA,1635438724.0,14.0,26.61,41.98,82.85,11.3
19.0,cape town,0.0,ZA,1635438541.0,71.0,-78.21,-14.79,70.12,1.01
20.0,punta arenas,75.0,CL,1635438497.0,48.0,-79.56,-106.74,60.91,23.02
21.0,kruisfontein,100.0,ZA,1635438725.0,88.0,-56.29,25.31,69.89,11.83
22.0,rikitea,23.0,PF,1635438725.0,82.0,-22.35,-135.61,74.3,6.62
23.0,saldanha,1.0,ZA,1635438725.0,84.0,-34.47,8.98,68.05,8.7
24.0,avarua,20.0,CK,1635438726.0,78.0,-38.66,-164.35,71.65,4.61
25.0,fortuna,1.0,US,1635438726.0,96.0,36.4,-142.51,56.32,9.22
26.0,bethel,90.0,US,1635438726.0,70.0,61.76,-163.16,57.02,3.0
27.0,fort nelson,75.0,CA,1635438726.0,93.0,57.68,-124.02,27.99,0.0
28.0,leningradskiy,100.0,RU,1635438556.0,91.0,80.68,178.88,6.15,12.41
29.0,arraial do cabo,75.0,BR,1635438727.0,78.0,-32.12,-39.53,82.36,17.27
30.0,nabire,100.0,ID,1635438727.0,91.0,-2.93,134.45,75.25,3.49
31.0,pangoa,23.0,PE,1635438727.0,39.0,-12.01,-72.81,91.17,4.83
32.0,bilma,3.0,NE,1635438727.0,13.0,20.12,12.0,87.75,3.76
33.0,humberto de campos,75.0,BR,1635438728.0,45.0,-2.35,-43.65,90.7,7.72
34.0,wanaka,44.0,NZ,1635438728.0,82.0,-42.51,168.75,50.11,1.01
35.0,qaanaaq,100.0,GL,1635438729.0,92.0,89.42,-84.48,21.79,8.52
36.0,ixtapa,1.0,MX,1635438572.0,61.0,1.11,-109.41,83.23,3.44
37.0,gizo,26.0,SB,1635438729.0,73.0,-12.64,155.53,82.62,9.64
38.0,tongliao,3.0,CN,1635438729.0,49.0,43.83,122.17,49.41,8.08
39.0,lebu,1.0,CL,1635438663.0,73.0,-33.1,-81.62,59.22,13.65
40.0,yellapur,46.0,IN,1635438730.0,72.0,15.13,74.78,65.73,2.66
41.0,hua hin,66.0,TH,1635438730.0,89.0,12.78,99.5,76.51,7.27
42.0,kaitangata,93.0,NZ,1635438730.0,96.0,-68.95,177.39,49.19,2.75
43.0,hilo,1.0,US,1635438603.0,84.0,10.2,-159.65,69.8,6.91
44.0,iqaluit,75.0,CA,1635438614.0,80.0,62.14,-71.9,33.53,4.0
45.0,ushuaia,20.0,AR,1635438612.0,39.0,-64.72,-43.65,60.46,19.57
46.0,bredasdorp,0.0,ZA,1635438730.0,73.0,-86.03,22.12,65.28,5.39
47.0,bonavista,100.0,CA,1635438731.0,71.0,50.74,-48.33,41.11,15.43
48.0,buka,100.0,UZ,1635438731.0,82.0,40.92,69.2,45.52,2.68
49.0,kapaa,75.0,US,1635438791.0,99.0,13.62,-173.75,73.38,6.91
50.0,andenes,75.0,NO,1635438792.0,87.0,70.48,14.73,43.07,19.57
51.0,ponta do sol,88.0,CV,1635438792.0,66.0,16.86,-32.35,75.13,6.96
52.0,el doncello,90.0,CO,1635438792.0,74.0,1.63,-75.02,81.55,2.37
53.0,faanui,61.0,PF,1635438792.0,81.0,-9.07,-151.26,78.69,7.94
54.0,hobart,75.0,AU,1635438717.0,93.0,-64.01,152.78,50.02,1.01
55.0,vallenar,38.0,CL,1635438793.0,21.0,-26.85,-74.95,87.01,9.53
56.0,tiksi,100.0,RU,1635438667.0,96.0,86.93,128.62,11.08,4.47
57.0,busselton,22.0,AU,1635438793.0,80.0,-50.79,95.29,42.04,8.55
58.0,ndele,60.0,CF,1635438793.0,65.0,9.21,20.55,81.27,2.35
59.0,haines junction,47.0,CA,1635438793.0,74.0,60.05,-140.09,22.95,3.44
60.0,jamestown,1.0,SH,1635438794.0,69.0,-26.09,-15.9,58.33,7.0
61.0,port alfred,100.0,ZA,1635438794.0,91.0,-55.93,36.26,68.18,13.27
62.0,kaeo,28.0,NZ,1635438794.0,96.0,-29.17,173.18,54.32,5.73
63.0,barrow,90.0,US,1635438794.0,86.0,71.11,-156.17,21.22,8.05
64.0,semey,0.0,KZ,1635438795.0,100.0,49.75,78.5,25.02,2.24
65.0,ilulissat,20.0,GL,1635438795.0,58.0,81.84,-44.11,21.22,3.44
66.0,namatanai,26.0,PG,1635438795.0,80.0,-2.47,154.12,80.17,8.14
67.0,port hedland,0.0,AU,1635438796.0,69.0,-22.86,120.14,75.25,9.22
68.0,san quintin,0.0,MX,1635438796.0,39.0,16.64,-131.75,73.56,2.53
69.0,albany,61.0,AU,1635438795.0,76.0,-69.63,98.94,56.68,3.04
70.0,new norfolk,100.0,AU,1635438796.0,83.0,-70.02,135.21,49.66,4.0
71.0,san patricio,0.0,MX,1635438796.0,18.0,15.44,-106.91,81.01,18.21
72.0,quinabigan,93.0,PH,1635438797.0,90.0,13.01,121.52,76.59,7.81
73.0,bluff,4.0,NZ,1635438797.0,89.0,-80.65,154.29,51.58,3.27
74.0,tasiilaq,100.0,GL,1635438797.0,74.0,69.45,-42.3,32.16,9.15
75.0,braco do norte,52.0,BR,1635438798.0,66.0,-27.91,-49.22,85.55,3.69
76.0,torbay,90.0,CA,1635438798.0,83.0,45.79,-47.43,40.57,16.11
77.0,flagstaff,1.0,US,1635438785.0,42.0,36.77,-111.63,57.52,14.0
78.0,linguere,0.0,SN,1635438799.0,44.0,15.08,-14.34,97.02,4.61
79.0,hobyo,41.0,SO,1635438799.0,75.0,2.35,48.72,80.89,9.31
80.0,sitka,75.0,US,1635438799.0,87.0,47.03,-139.22,37.29,10.36
81.0,namibe,20.0,AO,1635438799.0,65.0,-16.7,4.19,70.61,16.49
82.0,tecoanapa,24.0,MX,1635438800.0,71.0,10.44,-100.21,84.69,3.8
83.0,krasnoye,41.0,RU,1635438800.0,75.0,54.76,85.29,45.19,2.91
84.0,atuona,42.0,PF,1635438800.0,69.0,-2.94,-117.93,78.64,18.41
85.0,thompson,90.0,CA,1635438800.0,100.0,66.84,-90.85,39.36,8.05
86.0,swellendam,74.0,ZA,1635438801.0,76.0,-33.17,20.63,67.33,10.02
87.0,hearst,88.0,CA,1635438801.0,58.0,51.11,-82.7,44.85,6.76
88.0,upernavik,41.0,GL,1635438801.0,63.0,77.98,-54.22,19.24,5.97
89.0,luderitz,2.0,NA,1635438802.0,83.0,-29.28,12.35,61.48,10.96
90.0,bussolengo,0.0,IT,1635438802.0,62.0,45.47,10.86,60.06,3.44
91.0,okhotsk,45.0,RU,1635438802.0,91.0,59.11,143.68,19.56,7.81
92.0,roald,40.0,NO,1635438802.0,87.0,71.54,1.78,53.91,5.75
93.0,airai,97.0,PW,1635438803.0,91.0,16.37,138.88,63.14,1.19
94.0,nome,90.0,US,1635438803.0,79.0,64.8,-164.27,17.67,0.0
95.0,cabo san lucas,1.0,MX,1635438678.0,61.0,12.95,-118.35,83.52,3.0
96.0,bolisong,45.0,PH,1635438803.0,84.0,9.71,123.11,79.34,5.7
97.0,pilar,59.0,PH,1635438803.0,53.0,10.48,128.08,85.93,11.77
98.0,constitucion,7.0,MX,1635438804.0,59.0,23.01,-113.67,66.54,16.42
99.0,makakilo city,90.0,US,1635438804.0,89.0,5.07,-167.16,73.72,3.44
100.0,laje,38.0,BR,1635438804.0,33.0,-10.53,-40.79,89.35,9.66
101.0,katsuura,40.0,JP,1635438805.0,62.0,21.56,149.85,62.19,19.77
102.0,yuxia,100.0,CN,1635438805.0,75.0,33.42,108.78,48.81,2.17
103.0,bodden town,40.0,KY,1635438684.0,66.0,18.16,-80.52,89.6,10.36
104.0,jinchang,46.0,CN,1635438865.0,40.0,41.57,102.38,45.7,7.11
105.0,richards bay,98.0,ZA,1635438865.0,69.0,-34.64,37.81,67.69,14.07
106.0,praya,75.0,ID,1635438866.0,94.0,-11.71,116.2,73.94,8.05
107.0,matucana,43.0,PE,1635438866.0,47.0,-12.07,-76.41,70.83,4.63
108.0,georgetown,40.0,SH,1635438600.0,90.0,-18.0,-21.08,78.73,9.22
109.0,gigmoto,75.0,PH,1635438866.0,86.0,14.43,126.43,79.3,13.13
110.0,kodiak,1.0,US,1635438867.0,86.0,40.51,-153.42,27.91,5.75
111.0,yellowknife,75.0,CA,1635438661.0,100.0,89.53,-100.32,34.41,4.61
112.0,katherine,75.0,AU,1635438867.0,58.0,-16.66,131.32,86.32,9.22
113.0,lompoc,1.0,US,1635438867.0,62.0,19.72,-131.94,80.08,8.05
114.0,bud,100.0,NO,1635438868.0,96.0,69.27,4.96,55.35,8.61
115.0,hailey,20.0,US,1635438868.0,81.0,43.68,-114.42,41.9,5.75
116.0,slave lake,1.0,CA,1635438868.0,48.0,55.48,-114.21,40.98,18.41
117.0,hervey bay,4.0,AU,1635438868.0,82.0,-22.44,155.48,75.02,16.51
118.0,cidreira,4.0,BR,1635438869.0,75.0,-60.15,-21.43,72.28,16.53
119.0,vaini,40.0,TO,1635438869.0,83.0,-41.88,-168.55,73.56,8.05
120.0,kahului,1.0,US,1635438783.0,87.0,22.85,-154.13,75.85,0.0
121.0,ribeira grande,40.0,PT,1635438869.0,77.0,26.16,-43.66,68.4,14.23
122.0,monteiro,37.0,BR,1635438870.0,24.0,-8.12,-36.99,94.05,13.44
123.0,henties bay,77.0,NA,1635438870.0,80.0,-21.4,10.94,66.85,9.37
124.0,puerto leguizamo,87.0,CO,1635438870.0,64.0,0.0,-75.32,84.47,2.84
125.0,inirida,100.0,CO,1635438870.0,78.0,2.5,-67.64,81.64,2.55
126.0,nikolskoye,100.0,RU,1635438871.0,88.0,39.29,170.3,48.87,6.6
127.0,lagoa,99.0,PT,1635438871.0,74.0,45.87,-32.69,66.88,12.82
128.0,aginskoye,4.0,RU,1635438871.0,73.0,54.36,95.7,35.1,5.21
129.0,hofn,90.0,IS,1635438871.0,87.0,66.97,-13.81,46.42,21.85
130.0,aukra,75.0,NO,1635438872.0,93.0,62.81,6.89,53.76,3.44
131.0,buala,73.0,SB,1635438872.0,81.0,0.29,162.74,80.73,5.14
132.0,acapulco,1.0,MX,1635438872.0,74.0,6.18,-103.4,84.02,3.44
133.0,port elizabeth,20.0,ZA,1635438785.0,88.0,-83.41,37.68,72.1,2.3
134.0,pangnirtung,90.0,CA,1635438873.0,100.0,65.57,-65.67,32.0,2.3
135.0,pisco,20.0,PE,1635438873.0,82.0,-27.17,-94.02,64.45,9.22
136.0,pevek,99.0,RU,1635438873.0,95.0,77.05,165.62,2.07,2.93
137.0,munak,0.0,IN,1635438873.0,45.0,29.44,76.78,70.65,3.87
138.0,korla,37.0,CN,1635438874.0,41.0,35.49,84.61,49.68,1.86
139.0,kangaba,99.0,ML,1635438874.0,81.0,11.96,-8.73,76.39,6.51
140.0,norsup,1.0,VU,1635438874.0,82.0,-16.95,164.62,78.35,3.87
141.0,mar del plata,0.0,AR,1635438874.0,31.0,-43.24,-48.39,93.22,14.97
142.0,seoul,0.0,KR,1635438608.0,87.0,36.19,128.57,49.39,1.14
143.0,kysyl-syr,100.0,RU,1635438875.0,82.0,63.34,124.55,20.57,12.97
144.0,longyearbyen,0.0,SJ,1635438875.0,79.0,89.75,25.89,19.24,6.91
145.0,esperance,97.0,AU,1635438875.0,62.0,-54.7,127.36,48.04,8.21
146.0,qui nhon,99.0,VN,1635438876.0,90.0,13.63,108.87,76.68,6.62
147.0,anadyr,0.0,RU,1635438876.0,84.0,62.47,176.48,-7.1,6.71
148.0,kropotkin,53.0,RU,1635438876.0,54.0,58.86,117.37,46.2,4.81
149.0,omsukchan,72.0,RU,1635438791.0,93.0,65.41,157.83,6.17,6.49
150.0,east london,0.0,ZA,1635438876.0,83.0,-45.31,38.19,68.94,14.97
151.0,orthez,61.0,FR,1635438877.0,50.0,43.37,-1.07,71.04,2.64
152.0,angoche,17.0,MZ,1635438877.0,69.0,-15.93,40.02,76.23,15.97
153.0,auraiya,0.0,IN,1635438877.0,51.0,26.44,79.55,71.28,1.59
154.0,saskylakh,100.0,RU,1635438877.0,98.0,89.38,120.99,-0.85,5.12
155.0,carnarvon,0.0,AU,1635438878.0,63.0,-25.51,100.89,66.27,21.85
156.0,lavrentiya,100.0,RU,1635438878.0,85.0,75.51,-170.49,15.84,7.67
157.0,san luis,4.0,MX,1635438690.0,20.0,29.44,-114.68,92.21,22.75
158.0,saint-philippe,11.0,RE,1635438878.0,79.0,-51.64,66.81,76.59,3.65
159.0,mount gambier,90.0,AU,1635438644.0,100.0,-48.69,131.17,48.11,17.27
160.0,jalu,79.0,LY,1635438939.0,36.0,29.13,23.44,77.59,3.2
161.0,norman wells,75.0,CA,1635438939.0,93.0,66.9,-120.58,19.44,3.44
162.0,provideniya,99.0,RU,1635438939.0,87.0,44.11,-175.59,11.88,4.97
163.0,vryburg,94.0,ZA,1635438939.0,70.0,-26.41,25.01,65.46,16.06
164.0,matara,97.0,LK,1635438940.0,90.0,-1.01,81.23,77.36,7.81
165.0,jalingo,10.0,NG,1635438940.0,57.0,8.16,12.05,84.63,3.29
166.0,paita,33.0,PE,1635438940.0,68.0,-5.84,-82.9,72.16,15.1
167.0,warmbad,23.0,NA,1635438940.0,51.0,-28.53,18.69,72.82,19.22
168.0,grand gaube,3.0,MU,1635438941.0,70.0,-12.43,61.66,75.38,5.01
169.0,ancud,68.0,CL,1635438941.0,70.0,-38.92,-105.7,60.33,7.81
170.0,dodola,96.0,ET,1635438941.0,78.0,6.86,39.51,55.63,2.37
171.0,hernani,0.0,ES,1635438941.0,49.0,43.24,-1.88,71.42,1.99
172.0,antofagasta,18.0,CL,1635438677.0,64.0,-22.87,-78.77,63.68,8.93
173.0,guerrero negro,0.0,MX,1635438828.0,32.0,18.43,-128.22,76.33,1.68
174.0,nishihara,20.0,JP,1635438942.0,64.0,19.08,137.19,72.68,5.75
175.0,beringovskiy,29.0,RU,1635438942.0,86.0,54.19,176.4,5.18,8.57
176.0,alice springs,62.0,AU,1635438942.0,27.0,-22.97,135.05,76.55,5.75
177.0,castro,99.0,CL,1635438943.0,77.0,-50.12,-104.02,70.21,6.49
178.0,berdigestyakh,77.0,RU,1635438789.0,82.0,63.12,125.18,20.41,10.56
179.0,mahebourg,20.0,MU,1635438943.0,78.0,-42.72,75.91,75.25,11.5
180.0,ostersund,0.0,SE,1635438943.0,93.0,64.56,15.72,46.85,8.05
181.0,gorontalo,11.0,ID,1635438943.0,95.0,0.66,123.34,75.51,2.24
182.0,kemijarvi,100.0,FI,1635438944.0,99.0,68.42,28.19,35.74,8.48
183.0,alekseyevka,100.0,RU,1635438944.0,87.0,52.42,47.79,46.74,10.63
184.0,la romana,40.0,DO,1635438944.0,70.0,17.88,-68.74,88.16,13.8
185.0,walvis bay,0.0,NA,1635438944.0,31.0,-26.03,3.64,77.95,16.11
186.0,nador,20.0,MA,1635438945.0,77.0,34.39,-3.14,71.67,4.61
187.0,brigantine,40.0,US,1635438945.0,72.0,35.78,-70.29,62.65,0.0
188.0,evensk,100.0,RU,1635438945.0,95.0,62.54,157.77,10.78,6.24
189.0,ulaangom,100.0,MN,1635438945.0,61.0,49.61,92.6,36.55,3.22
190.0,long,52.0,TH,1635438946.0,95.0,18.07,99.71,72.77,2.51
191.0,dwarka,2.0,IN,1635438946.0,51.0,17.89,64.38,82.69,10.4
192.0,bintulu,40.0,MY,1635438946.0,100.0,2.89,113.95,75.61,3.0
193.0,ouadda,77.0,CF,1635438946.0,89.0,7.69,22.19,70.32,3.44
194.0,semnan,8.0,IR,1635438947.0,46.0,35.09,53.39,52.84,0.92
195.0,noyabrsk,100.0,RU,1635438947.0,97.0,63.91,75.29,29.23,17.76
196.0,mantua,8.0,CU,1635438947.0,71.0,21.38,-84.9,62.92,1.54
197.0,mirabad,3.0,AF,1635438948.0,31.0,29.98,60.74,65.07,7.58
198.0,chuy,0.0,UY,1635438948.0,50.0,-49.47,-39.21,79.61,10.85
199.0,bambous virieux,20.0,MU,1635438948.0,78.0,-33.26,83.9,75.22,11.5
200.0,kiama,62.0,AU,1635438948.0,85.0,-35.82,152.67,68.0,7.36
201.0,maine-soroa,27.0,NE,1635438949.0,8.0,13.31,11.99,92.05,11.3
202.0,otjimbingwe,53.0,NA,1635438949.0,39.0,-22.29,15.91,79.38,15.05
203.0,shingu,0.0,JP,1635438949.0,82.0,31.05,136.26,52.84,7.34
204.0,copiapo,2.0,CL,1635438949.0,22.0,-26.96,-72.45,58.69,8.63
205.0,bredy,87.0,RU,1635438950.0,66.0,52.6,60.65,35.51,16.93
206.0,severo-kurilsk,80.0,RU,1635438950.0,87.0,44.87,160.98,42.01,5.61
207.0,mwingi,17.0,KE,1635438950.0,45.0,-0.61,38.04,76.28,8.37
208.0,rio grande,0.0,BR,1635438950.0,64.0,-37.04,-46.09,86.11,12.5
209.0,vila velha,20.0,BR,1635438668.0,65.0,-28.7,-27.23,82.35,12.66
210.0,hithadhoo,80.0,MV,1635438940.0,75.0,-8.63,85.14,82.99,17.2
211.0,meulaboh,94.0,ID,1635438951.0,88.0,0.45,93.47,77.79,7.02
212.0,pinega,20.0,RU,1635438951.0,95.0,64.47,43.03,19.76,4.36
213.0,tuktoyaktuk,90.0,CA,1635438951.0,100.0,81.45,-124.3,26.6,3.44
214.0,bengkulu,100.0,ID,1635438952.0,86.0,-9.42,94.89,77.27,3.8
215.0,nacala,12.0,MZ,1635439012.0,62.0,-13.88,41.22,77.22,17.31
216.0,hamilton,90.0,BM,1635438730.0,84.0,26.27,-63.03,56.95,1.01
217.0,latung,71.0,PH,1635439012.0,73.0,3.62,121.77,83.46,4.85
218.0,dehloran,1.0,IR,1635439012.0,17.0,31.65,46.46,77.94,5.19
219.0,brownsville,1.0,US,1635439013.0,31.0,25.66,-95.42,81.01,5.01
220.0,coahuayana,17.0,MX,1635439013.0,60.0,-2.43,-114.53,85.48,1.81
221.0,butaritari,100.0,KI,1635439013.0,71.0,11.15,174.59,82.06,11.77
222.0,zhigansk,100.0,RU,1635439013.0,90.0,72.13,122.68,19.33,13.85
223.0,havoysund,100.0,NO,1635439014.0,92.0,76.81,22.62,32.88,21.79
224.0,aljezur,94.0,PT,1635439014.0,72.0,36.43,-10.19,67.24,7.2
225.0,almaznyy,95.0,RU,1635439014.0,69.0,62.69,115.39,44.74,7.81
226.0,bakel,100.0,SN,1635439014.0,20.0,13.92,-12.36,97.63,3.58
227.0,walajapet,100.0,IN,1635439015.0,84.0,13.03,79.43,74.64,3.69
228.0,cherskiy,51.0,RU,1635439015.0,95.0,89.78,160.75,-18.74,4.0
229.0,salinopolis,26.0,BR,1635439015.0,77.0,6.87,-43.19,81.59,6.64
230.0,ghanzi,58.0,BW,1635439015.0,53.0,-21.85,21.65,74.37,7.36
231.0,malindi,20.0,KE,1635439016.0,74.0,-3.76,40.81,80.76,8.05
232.0,itarema,10.0,BR,1635439016.0,54.0,5.46,-35.35,88.65,19.08
233.0,khasan,0.0,RU,1635439016.0,53.0,40.49,129.79,45.52,5.39
234.0,trairi,12.0,BR,1635439008.0,54.0,-1.94,-38.47,87.71,16.11
235.0,beinamar,40.0,TD,1635439016.0,53.0,8.65,14.82,84.06,2.75
236.0,la ronge,40.0,CA,1635439017.0,75.0,61.62,-104.18,39.45,4.61
237.0,elk,31.0,PL,1635439017.0,89.0,53.72,22.36,50.86,6.8
238.0,arevashogh,0.0,AM,1635439017.0,45.0,40.92,44.27,35.58,1.9
239.0,shafranovo,100.0,RU,1635439017.0,69.0,54.2,54.71,36.9,14.07
240.0,chumikan,43.0,RU,1635439018.0,74.0,56.37,134.9,36.66,18.25
241.0,taoudenni,68.0,ML,1635439018.0,22.0,25.49,-3.27,93.11,3.02
242.0,klaksvik,7.0,FO,1635439018.0,89.0,76.94,-1.65,49.12,21.41
243.0,tarakan,95.0,ID,1635439019.0,80.0,2.71,119.24,80.22,3.67
244.0,yarada,90.0,IN,1635439019.0,74.0,13.97,87.56,84.52,11.5
245.0,kalmunai,78.0,LK,1635439019.0,82.0,7.52,82.78,79.41,7.14
246.0,otane,99.0,NZ,1635439019.0,99.0,-43.2,179.9,60.01,1.48
247.0,gao,58.0,ML,1635439020.0,13.0,17.43,-1.29,97.2,5.21
248.0,lorengau,64.0,PG,1635439020.0,79.0,2.4,144.1,81.46,5.75
249.0,laguna,40.0,BR,1635439020.0,97.0,-33.79,-42.87,67.08,3.44
250.0,nanortalik,82.0,GL,1635439021.0,66.0,61.79,-44.18,37.22,4.9
251.0,enshi,99.0,CN,1635439021.0,88.0,31.45,109.54,58.19,2.35
252.0,asfi,8.0,MA,1635438989.0,79.0,33.39,-11.57,69.15,11.16
253.0,qadian,0.0,IN,1635439021.0,47.0,31.85,75.46,64.08,3.42
254.0,odweyne,0.0,SO,1635439022.0,40.0,9.33,45.69,74.35,10.2
255.0,olafsvik,93.0,IS,1635439022.0,80.0,64.64,-27.47,42.57,25.57
256.0,yinchuan,40.0,CN,1635439023.0,34.0,37.86,106.6,51.4,5.08
257.0,belem,40.0,BR,1635438807.0,79.0,-1.53,-48.51,84.24,11.5
258.0,barla,33.0,RO,1635439023.0,48.0,44.45,24.75,52.14,1.28
259.0,praia,75.0,CV,1635439023.0,94.0,12.72,-22.4,73.94,8.05
260.0,riyadh,91.0,SA,1635439024.0,14.0,22.49,46.87,86.14,9.26
261.0,atikokan,100.0,CA,1635439024.0,81.0,47.71,-90.78,45.81,4.99
262.0,laramie,1.0,US,1635439024.0,53.0,41.83,-106.27,48.36,5.99
263.0,geraldton,3.0,CA,1635439024.0,62.0,51.28,-88.55,55.81,12.66
264.0,cap malheureux,2.0,MU,1635439025.0,70.0,-17.19,55.57,75.47,5.01
265.0,touros,86.0,BR,1635439025.0,52.0,-1.71,-26.69,88.7,18.66
266.0,viedma,54.0,AR,1635439025.0,12.0,-41.36,-61.49,100.49,20.18
267.0,codrington,100.0,AG,1635439025.0,94.0,25.26,-57.72,50.4,34.61
268.0,kota,0.0,IN,1635439026.0,35.0,24.45,83.36,72.77,4.38
269.0,saint-prosper,20.0,CA,1635439026.0,51.0,46.46,-69.82,44.31,10.4
270.0,nikolsk,100.0,RU,1635439026.0,91.0,53.51,45.92,42.01,12.08
271.0,manaus,75.0,BR,1635438848.0,79.0,-0.47,-60.18,84.7,4.61
272.0,andijon,100.0,UZ,1635439086.0,55.0,40.55,72.78,52.88,9.33
273.0,mozhga,100.0,RU,1635439087.0,87.0,56.36,52.21,40.68,11.48
274.0,grand-santi,23.0,GF,1635439087.0,28.0,1.7,-54.46,98.91,2.95
275.0,albert town,92.0,JM,1635439087.0,57.0,18.22,-77.55,79.3,6.06
276.0,beloha,38.0,MG,1635439087.0,59.0,-33.34,41.88,65.48,13.94
277.0,manicore,89.0,BR,1635439088.0,59.0,-7.03,-59.68,89.04,2.64
278.0,cururupu,47.0,BR,1635439088.0,51.0,-0.33,-43.34,88.79,6.49
279.0,khatanga,100.0,RU,1635439088.0,98.0,71.64,100.47,-4.0,6.38
280.0,montepuez,51.0,MZ,1635439088.0,41.0,-12.99,39.57,82.02,8.99
281.0,nelson bay,46.0,AU,1635439089.0,84.0,-36.0,155.53,70.68,6.51
282.0,scottsbluff,1.0,US,1635439089.0,42.0,42.14,-103.29,48.29,10.0
283.0,ginda,0.0,ER,1635439089.0,46.0,16.07,39.54,50.32,6.11
284.0,mehamn,40.0,NO,1635439090.0,80.0,83.96,28.58,30.38,24.16
285.0,sola,22.0,VU,1635439090.0,76.0,-14.29,169.95,80.56,13.87
286.0,port augusta,13.0,AU,1635439090.0,73.0,-29.34,135.94,59.7,15.21
287.0,general pico,79.0,AR,1635439090.0,15.0,-35.34,-63.63,98.76,19.73
288.0,vestmanna,75.0,FO,1635439091.0,100.0,67.17,-10.12,47.32,16.11
289.0,bairiki,40.0,KI,1635439091.0,78.0,0.89,164.39,80.6,8.05
290.0,lundazi,76.0,ZM,1635439091.0,54.0,-12.11,32.9,72.68,8.97
291.0,waipawa,100.0,NZ,1635439091.0,96.0,-43.15,175.55,56.44,3.78
292.0,kavieng,53.0,PG,1635439092.0,77.0,-1.01,151.47,82.33,10.96
293.0,melo,0.0,UY,1635439092.0,47.0,-32.8,-54.05,82.54,11.81
294.0,mineiros,99.0,BR,1635439092.0,40.0,-17.78,-52.74,87.85,5.06
295.0,lumeje,85.0,AO,1635439092.0,57.0,-11.67,21.08,76.66,1.86
296.0,salinas,1.0,US,1635438835.0,82.0,36.54,-121.69,68.97,12.66
297.0,bonthe,58.0,SL,1635439093.0,72.0,4.04,-17.41,82.89,8.88
298.0,harper,61.0,LR,1635439093.0,77.0,2.01,-9.28,80.71,6.51
299.0,quatre cocos,12.0,MU,1635439093.0,75.0,-19.48,62.25,75.09,10.74
300.0,amos,0.0,CA,1635439094.0,46.0,49.11,-78.0,48.47,6.69
301.0,duldurga,2.0,RU,1635439094.0,73.0,50.27,113.79,35.38,5.06
302.0,kichera,3.0,RU,1635439094.0,78.0,56.51,110.94,17.55,4.94
303.0,gotsu,7.0,JP,1635439094.0,70.0,37.43,130.62,55.63,10.71
304.0,aklavik,91.0,CA,1635439095.0,96.0,79.31,-140.74,27.32,5.26
305.0,pfullendorf,5.0,DE,1635439095.0,87.0,47.95,9.25,52.02,0.51
306.0,valley city,1.0,US,1635438907.0,100.0,47.05,-98.16,47.39,17.27
307.0,chokwe,65.0,MZ,1635439095.0,58.0,-22.9,33.27,70.5,14.09
308.0,kendari,99.0,ID,1635439096.0,88.0,-3.41,121.79,76.82,0.6
309.0,marsa matruh,40.0,EG,1635439096.0,83.0,30.65,28.45,75.4,10.36
310.0,coihaique,75.0,CL,1635439096.0,39.0,-45.9,-71.18,62.55,9.22
311.0,mundo nuevo,19.0,MX,1635439097.0,82.0,19.05,-95.06,82.2,23.02
312.0,inhambane,94.0,MZ,1635439097.0,61.0,-26.63,39.09,69.4,10.74
313.0,campo grande,75.0,BR,1635439097.0,46.0,-20.61,-54.68,90.95,3.44
314.0,sumbawanga,31.0,TZ,1635439097.0,28.0,-7.87,32.17,71.31,3.27
315.0,tual,83.0,ID,1635439098.0,73.0,-8.24,135.01,83.73,3.96
316.0,vilyuysk,100.0,RU,1635439098.0,84.0,61.96,122.4,20.53,12.91
317.0,zhengjiatun,0.0,CN,1635439098.0,49.0,44.0,123.89,44.49,6.82
318.0,san lorenzo,0.0,AR,1635439099.0,29.0,-27.99,-58.46,92.34,5.75
319.0,necochea,56.0,AR,1635439070.0,39.0,-47.01,-56.03,86.65,13.22
320.0,conway,90.0,US,1635438835.0,90.0,35.68,-92.54,57.72,5.01
321.0,dingle,81.0,IE,1635439099.0,91.0,47.58,-14.4,75.6,6.96
322.0,shimoda,67.0,JP,1635439099.0,73.0,28.33,139.34,57.11,15.95
323.0,marsh harbour,100.0,BS,1635439099.0,72.0,26.63,-76.98,83.03,13.69
324.0,aswan,0.0,EG,1635439100.0,15.0,23.04,35.4,94.3,5.75
325.0,naze,1.0,JP,1635439160.0,61.0,23.1,134.76,66.87,8.86
326.0,somanda,92.0,TZ,1635439160.0,29.0,-3.34,33.82,83.3,2.01
327.0,half moon bay,1.0,US,1635439160.0,81.0,32.05,-134.1,69.4,5.75
328.0,khunti,0.0,IN,1635439161.0,71.0,22.84,85.14,69.91,5.39
329.0,dalnerechensk,0.0,RU,1635439161.0,72.0,46.09,134.01,37.02,4.45
330.0,bubaque,22.0,GW,1635439161.0,64.0,2.27,-23.65,83.14,3.94
331.0,merauke,95.0,ID,1635438997.0,83.0,-11.04,140.18,79.36,9.66
332.0,adrar,100.0,DZ,1635439162.0,30.0,25.71,-2.56,86.11,10.31
333.0,tezu,0.0,IN,1635439162.0,56.0,30.94,97.67,67.01,4.34
334.0,conceicao do araguaia,26.0,BR,1635439162.0,25.0,-7.31,-49.04,99.72,6.93
335.0,severodvinsk,68.0,RU,1635439162.0,85.0,64.2,39.69,19.51,6.64
336.0,saint george,1.0,BM,1635438930.0,62.0,37.13,-62.94,64.35,0.0
337.0,belmonte,20.0,BR,1635439163.0,64.0,-16.11,-37.99,82.9,11.81
338.0,charters towers,0.0,AU,1635439163.0,88.0,-19.99,143.09,67.96,7.07
339.0,kirkuk,95.0,IQ,1635439163.0,30.0,35.46,44.35,73.81,1.7
340.0,soyo,16.0,AO,1635439164.0,79.0,-8.79,6.01,82.45,12.21
341.0,barsovo,100.0,RU,1635439164.0,97.0,59.9,73.48,32.13,13.47
342.0,kyabe,42.0,TD,1635439164.0,59.0,9.33,18.76,82.11,6.2
343.0,ocos,21.0,GT,1635439164.0,75.0,11.9,-93.99,89.73,5.77
344.0,margate,0.0,ZA,1635439165.0,75.0,-38.19,39.93,58.71,5.01
345.0,kavaratti,100.0,IN,1635439165.0,77.0,9.37,67.04,80.62,3.94
346.0,ballina,24.0,IE,1635439165.0,91.0,57.44,-11.67,73.36,14.97
347.0,arkadak,100.0,RU,1635439165.0,84.0,51.64,43.52,44.65,12.1
348.0,wamba,21.0,CD,1635439166.0,68.0,2.15,27.51,81.34,3.74
349.0,changying,88.0,CN,1635439166.0,78.0,34.44,114.61,33.3,3.0
350.0,puerto colombia,100.0,CO,1635438987.0,68.0,13.84,-76.07,86.09,3.85
351.0,omachi,3.0,JP,1635439166.0,70.0,36.61,137.67,44.38,4.07
352.0,tessalit,97.0,ML,1635439166.0,13.0,24.36,3.4,91.92,13.47
353.0,zmiyiv,100.0,UA,1635439167.0,79.0,49.71,36.23,50.61,10.42
354.0,chicama,76.0,PE,1635439167.0,61.0,-12.19,-85.58,64.94,11.03
355.0,tutoia,93.0,BR,1635439167.0,62.0,1.34,-41.32,93.18,13.31
356.0,muisne,100.0,EC,1635439168.0,84.0,2.76,-84.2,76.6,10.71
357.0,hereford,100.0,US,1635439168.0,69.0,34.75,-102.38,59.02,1.01
358.0,naron,100.0,ES,1635439168.0,65.0,46.29,-8.77,63.01,15.75
359.0,saint-pierre,75.0,RE,1635439168.0,66.0,-24.49,53.4,76.68,3.44
360.0,ejby,12.0,DK,1635439169.0,87.0,55.74,11.83,53.73,6.91
361.0,salalah,20.0,OM,1635439169.0,78.0,15.49,58.05,80.69,5.75
362.0,pontianak,75.0,ID,1635439169.0,100.0,-0.91,109.98,76.98,2.3
363.0,kirakira,18.0,SB,1635439170.0,84.0,-12.72,163.09,80.38,4.7
364.0,ust-ilimsk,92.0,RU,1635439170.0,74.0,58.75,102.27,22.8,4.7
365.0,sumbe,49.0,AO,1635439170.0,80.0,-10.07,13.53,75.56,10.58
366.0,la rioja,65.0,AR,1635438995.0,41.0,-29.19,-67.74,55.49,4.25
367.0,isangel,4.0,VU,1635439170.0,89.0,-22.71,177.94,75.18,9.8
368.0,providencia,0.0,MX,1635439171.0,29.0,28.81,-112.19,76.21,3.0
369.0,tongren,100.0,CN,1635439171.0,95.0,27.64,108.1,56.91,1.19
370.0,kalianget,87.0,ID,1635439171.0,76.0,-5.74,115.24,83.28,4.88
371.0,the pas,90.0,CA,1635439171.0,93.0,53.81,-101.3,41.02,8.05
372.0,talnakh,94.0,RU,1635439172.0,96.0,68.92,90.92,-8.54,9.08
373.0,ola,99.0,RU,1635439172.0,92.0,57.97,151.83,26.35,4.18
374.0,bathsheba,40.0,BB,1635439172.0,66.0,23.36,-44.12,88.41,13.8
375.0,yate,97.0,NC,1635438993.0,89.0,-21.83,166.84,59.22,8.01
376.0,kautokeino,100.0,NO,1635439172.0,98.0,69.09,24.17,32.81,20.07
377.0,phan thiet,98.0,VN,1635439233.0,90.0,10.59,108.39,77.05,5.32
378.0,tambura,84.0,SD,1635439233.0,76.0,6.05,27.82,75.83,1.43
379.0,gagnoa,98.0,CI,1635439233.0,94.0,6.28,-5.93,75.29,4.79
380.0,madimba,5.0,TZ,1635439233.0,78.0,-9.84,41.69,77.59,8.88
381.0,kampot,88.0,KH,1635439234.0,86.0,11.2,103.89,78.85,3.53
382.0,kuusamo,90.0,FI,1635439234.0,100.0,65.22,28.96,30.24,11.5
383.0,olinda,40.0,BR,1635439234.0,58.0,-8.6,-29.64,85.73,13.8
384.0,hami,65.0,CN,1635439180.0,34.0,41.58,91.12,50.63,4.25
385.0,sawtell,44.0,AU,1635439234.0,87.0,-30.45,153.43,73.42,10.36
386.0,oksfjord,100.0,NO,1635439235.0,93.0,72.15,21.63,32.92,12.1
387.0,general roca,99.0,AR,1635439235.0,20.0,-39.12,-67.31,83.62,7.72
388.0,dir,2.0,PK,1635439235.0,51.0,35.06,72.1,51.84,5.32
389.0,victor harbor,86.0,AU,1635439236.0,96.0,-36.96,137.69,59.09,3.0
390.0,komsomolskiy,97.0,RU,1635439236.0,53.0,77.36,175.03,50.72,0.0
391.0,savannah bight,30.0,HN,1635439236.0,70.0,17.3,-86.23,91.45,2.95
392.0,ilave,59.0,PE,1635439236.0,36.0,-16.38,-69.83,57.49,8.97
393.0,tuensang,3.0,IN,1635439237.0,96.0,25.92,95.89,60.85,2.93
394.0,comodoro rivadavia,0.0,AR,1635439237.0,12.0,-45.26,-65.88,80.46,19.57
395.0,xuanhua,62.0,CN,1635439237.0,47.0,40.33,114.97,48.58,3.38
396.0,altayskoye,14.0,RU,1635439237.0,83.0,51.92,85.39,32.67,3.49
397.0,northam,100.0,AU,1635439238.0,96.0,-31.44,117.71,59.02,12.19
398.0,puebla,3.0,MX,1635439184.0,50.0,32.66,-115.32,71.37,4.32
399.0,hasaki,84.0,JP,1635439238.0,56.0,31.15,150.04,54.0,27.4
400.0,praia da vitoria,20.0,PT,1635439238.0,73.0,47.44,-23.8,71.85,6.85
401.0,salym,100.0,RU,1635439238.0,97.0,60.99,71.27,32.95,10.78
402.0,silleda,100.0,ES,1635439239.0,59.0,42.86,-8.3,60.62,9.19
403.0,presidente epitacio,84.0,BR,1635439239.0,49.0,-21.37,-52.4,89.17,6.67
404.0,kapit,100.0,MY,1635439239.0,99.0,2.09,114.97,73.74,1.32
405.0,samarai,62.0,PG,1635439239.0,81.0,-12.33,152.95,81.72,11.1
406.0,poum,13.0,NC,1635439240.0,83.0,-16.46,159.89,75.09,7.78
407.0,spanish town,20.0,JM,1635439240.0,70.0,18.13,-76.93,87.42,9.22
408.0,coquimbo,75.0,CL,1635439056.0,77.0,-26.79,-89.04,60.53,16.11
409.0,ewing,1.0,US,1635439240.0,65.0,40.39,-74.84,63.39,0.0
410.0,kamenka,100.0,RU,1635439240.0,83.0,68.24,43.42,44.92,12.95
411.0,kokstad,100.0,ZA,1635439241.0,97.0,-30.85,29.48,58.73,4.7
412.0,cabra,5.0,PH,1635439241.0,42.0,13.96,116.96,74.64,8.01
413.0,hirara,99.0,JP,1635439241.0,67.0,23.36,125.7,74.71,18.5
414.0,kahama,87.0,TZ,1635439241.0,30.0,-3.98,32.74,81.75,1.32
415.0,senanga,60.0,ZM,1635439242.0,36.0,-16.16,23.85,83.61,2.55
416.0,tarabha,35.0,IN,1635439211.0,78.0,20.64,83.81,72.63,1.45
417.0,clyde river,90.0,CA,1635439242.0,100.0,71.88,-77.18,34.03,11.5
418.0,ahuimanu,75.0,US,1635439243.0,83.0,36.65,-151.91,74.91,3.44
419.0,mana,63.0,GF,1635439243.0,62.0,9.91,-53.38,86.56,9.35
420.0,kondagaon,53.0,IN,1635439243.0,86.0,19.83,81.86,65.86,5.41
421.0,nanchang,16.0,CN,1635439243.0,68.0,28.96,115.73,63.45,4.94
422.0,bugiri,63.0,UG,1635439244.0,89.0,-0.75,29.6,65.41,14.03
423.0,concepcion del uruguay,92.0,AR,1635439244.0,31.0,-32.3,-58.41,94.98,11.01
424.0,pacific grove,1.0,US,1635439244.0,82.0,27.13,-136.94,68.58,8.01
425.0,ohara,55.0,JP,1635439244.0,61.0,35.12,140.64,61.02,18.88
426.0,seybaplaya,28.0,MX,1635439245.0,72.0,20.47,-91.77,87.26,9.24
427.0,vila franca do campo,96.0,PT,1635439245.0,78.0,42.29,-19.75,70.21,8.05
428.0,morros,4.0,BR,1635439245.0,24.0,-8.57,-46.31,96.13,4.81
429.0,wanning,100.0,CN,1635439245.0,94.0,18.54,112.88,76.01,8.99
430.0,agadez,31.0,NE,1635439246.0,11.0,16.35,7.87,87.44,8.9
431.0,inuvik,90.0,CA,1635439246.0,97.0,65.14,-131.47,27.36,1.14
432.0,puerto escondido,1.0,MX,1635439246.0,62.0,10.8,-99.37,86.83,5.75
433.0,balod,20.0,IN,1635439306.0,72.0,20.56,80.97,67.78,3.62
434.0,novikovo,98.0,RU,1635439307.0,88.0,47.54,145.78,46.56,11.16
435.0,kawalu,100.0,ID,1635439307.0,95.0,-17.57,105.71,72.9,2.64
436.0,basco,54.0,PH,1635439307.0,70.0,20.18,126.2,78.89,21.61
437.0,kushima,0.0,JP,1635439156.0,77.0,27.19,135.19,56.12,8.68
438.0,mosquera,75.0,CO,1635439308.0,59.0,3.94,-79.28,66.29,3.44
439.0,maragogi,31.0,BR,1635439308.0,65.0,-15.98,-24.82,82.53,11.3
440.0,broken hill,0.0,AU,1635439308.0,36.0,-32.51,142.49,60.51,10.36
441.0,deputatskiy,100.0,RU,1635439308.0,98.0,75.1,141.86,3.45,0.43
442.0,pascagoula,1.0,US,1635439309.0,49.0,28.39,-88.53,74.05,12.66
443.0,mbanza-ngungu,91.0,CD,1635439309.0,74.0,-5.98,15.37,75.22,4.47
444.0,allada,72.0,BJ,1635439309.0,82.0,6.55,2.08,80.11,4.54
445.0,asau,82.0,TV,1635439309.0,61.0,-14.16,175.47,52.75,2.21
446.0,awjilah,92.0,LY,1635439310.0,36.0,29.01,19.66,77.43,1.77
447.0,sol-iletsk,91.0,RU,1635439310.0,72.0,50.05,55.3,38.26,10.6
448.0,portland,90.0,AU,1635439264.0,91.0,-57.82,128.97,63.63,4.0
449.0,broome,1.0,AU,1635439310.0,74.0,-15.55,123.6,57.63,1.01
450.0,moerai,100.0,PF,1635439310.0,76.0,-21.25,-152.11,71.2,5.86
451.0,yei,85.0,SD,1635439311.0,77.0,4.08,31.09,71.92,2.35
452.0,port blair,51.0,IN,1635439311.0,81.0,13.06,88.19,81.05,7.92
453.0,los llanos de aridane,20.0,ES,1635439311.0,67.0,28.65,-24.49,69.55,8.99
454.0,nouakchott,100.0,MR,1635439311.0,60.0,18.24,-14.98,85.93,16.53
455.0,sao filipe,100.0,CV,1635439312.0,75.0,15.35,-25.39,79.75,10.2
456.0,toma,85.0,BF,1635439312.0,33.0,13.04,-4.43,93.24,10.74
457.0,bayanday,69.0,RU,1635439312.0,54.0,53.3,105.74,24.19,2.91
458.0,gweta,73.0,BW,1635439313.0,36.0,-19.8,25.1,84.24,6.78
459.0,ust-maya,100.0,RU,1635439313.0,94.0,58.74,134.11,25.09,4.05
460.0,narsaq,64.0,GL,1635439313.0,69.0,85.17,-65.46,32.22,4.14
461.0,talara,0.0,PE,1635439313.0,68.0,-5.01,-85.34,72.36,14.97
462.0,ostrovnoy,84.0,RU,1635439314.0,77.0,77.79,43.51,24.39,8.43
463.0,caraquet,100.0,CA,1635439313.0,77.0,47.43,-64.47,52.34,15.48
464.0,denpasar,20.0,ID,1635439314.0,88.0,-12.28,115.27,80.26,6.91
465.0,bowmore,1.0,GB,1635439314.0,58.0,56.13,-6.87,71.62,4.0
466.0,mahibadhoo,68.0,MV,1635439314.0,73.0,4.33,62.55,82.74,9.62
467.0,saint-georges,40.0,GF,1635439245.0,70.0,3.61,-52.11,85.68,19.57
468.0,izyaslav,80.0,UA,1635439315.0,88.0,50.07,26.56,48.29,4.54
469.0,dauphin,40.0,CA,1635439315.0,87.0,51.9,-98.4,42.94,14.97
470.0,baykit,68.0,RU,1635439315.0,99.0,60.82,96.71,6.19,1.12
471.0,chukhloma,58.0,RU,1635439315.0,80.0,58.7,42.93,28.18,7.67
472.0,grindavik,75.0,IS,1635439316.0,87.0,58.05,-22.9,44.55,16.11
473.0,tautira,82.0,PF,1635439316.0,83.0,-17.38,-148.07,77.02,13.76
474.0,bacolod,83.0,PH,1635439316.0,86.0,9.01,128.3,77.67,8.37
475.0,opuwo,71.0,NA,1635439316.0,19.0,-17.68,13.38,87.39,9.64
476.0,nijar,20.0,ES,1635439317.0,68.0,36.36,-1.62,65.84,5.75
477.0,brownfield,0.0,US,1635439317.0,23.0,33.18,-102.79,64.31,21.43
478.0,carroll,1.0,US,1635439317.0,69.0,42.03,-95.43,63.91,4.0
479.0,sucua,75.0,EC,1635439317.0,69.0,-2.83,-77.39,77.74,2.3
480.0,maceio,40.0,BR,1635439318.0,62.0,-12.92,-31.45,87.24,12.66
481.0,valparaiso,0.0,CL,1635439318.0,59.0,-31.87,-78.03,75.43,5.75
482.0,hualmay,59.0,PE,1635439318.0,69.0,-20.63,-95.87,69.58,9.8
483.0,cerrito,67.0,PY,1635439318.0,73.0,-27.49,-57.52,63.79,4.14
484.0,ankara,0.0,TR,1635439147.0,44.0,39.57,32.88,56.21,5.75
485.0,santa rita,20.0,VE,1635439319.0,48.0,10.88,-71.09,88.47,16.11
486.0,atherton,100.0,AU,1635439319.0,85.0,-19.06,142.64,59.9,4.0
487.0,nalut,100.0,LY,1635439379.0,39.0,29.35,10.76,68.95,6.55
488.0,alofi,4.0,NU,1635439380.0,94.0,-17.71,-164.53,66.09,1.14
489.0,sumenep,87.0,ID,1635439380.0,77.0,-6.32,113.69,82.89,4.16
490.0,fuxin,100.0,CN,1635439380.0,43.0,42.89,121.7,50.74,2.55
491.0,saint-paul,1.0,RE,1635439380.0,92.0,-21.09,52.93,77.11,10.4
492.0,chaihe,0.0,CN,1635439381.0,78.0,45.43,129.44,34.27,2.04
493.0,dunedin,98.0,NZ,1635439381.0,95.0,-53.81,178.25,52.21,3.11
494.0,sim,100.0,RU,1635439382.0,97.0,54.73,57.5,34.32,10.96
495.0,khandbari,7.0,NP,1635439382.0,77.0,27.48,86.82,60.44,3.42
496.0,qinzhou,99.0,CN,1635439383.0,85.0,21.9,108.43,68.41,4.68
497.0,lazaro cardenas,2.0,MX,1635439117.0,70.0,16.12,-102.93,83.5,1.25
498.0,husavik,93.0,IS,1635439383.0,88.0,75.65,-8.39,37.31,7.9
499.0,kedrovyy,67.0,RU,1635439383.0,57.0,58.94,79.29,18.01,4.23
500.0,calvinia,65.0,ZA,1635439384.0,56.0,-32.17,20.47,71.42,11.5
501.0,gouyave,40.0,GD,1635439384.0,70.0,12.47,-62.99,84.97,19.57
502.0,tyup,68.0,KG,1635439384.0,63.0,43.64,78.91,41.54,4.16
503.0,ponerihouen,87.0,NC,1635439384.0,87.0,-21.19,165.36,72.84,7.54
504.0,spearfish,1.0,US,1635439121.0,39.0,44.53,-104.59,50.88,5.99
505.0,eyl,0.0,SO,1635439385.0,65.0,7.64,49.74,78.57,14.58
506.0,labuhan,100.0,ID,1635439385.0,80.0,-10.94,101.93,81.5,4.12
507.0,tsirguliina,100.0,EE,1635439385.0,97.0,57.92,26.2,54.09,9.08
508.0,bitung,18.0,ID,1635439386.0,83.0,1.13,125.64,77.85,3.44
509.0,teguise,40.0,ES,1635439386.0,61.0,30.46,-13.89,73.62,18.41
510.0,aguilas,100.0,ES,1635439386.0,69.0,36.56,-1.32,72.21,3.56
511.0,banjar,100.0,ID,1635439386.0,90.0,-9.36,106.73,80.46,3.2
512.0,kenai,90.0,US,1635439387.0,93.0,63.28,-152.61,31.14,17.27
513.0,kjollefjord,40.0,NO,1635439387.0,80.0,71.72,27.41,30.25,24.16
514.0,sibolga,100.0,ID,1635439387.0,82.0,1.04,96.12,78.58,2.57
515.0,nuuk,40.0,GL,1635439387.0,69.0,62.82,-51.25,30.81,9.22
516.0,llanelli,75.0,GB,1635439388.0,92.0,51.85,-4.12,58.95,21.85
517.0,tricase,0.0,IT,1635439388.0,72.0,39.94,18.81,64.33,3.44
518.0,bang racham,89.0,TH,1635439388.0,91.0,14.93,100.34,75.94,2.64
519.0,marsabit,36.0,KE,1635439388.0,32.0,2.36,37.24,76.69,13.94
520.0,izumo,12.0,JP,1635439389.0,70.0,36.65,132.29,60.75,9.4
521.0,prince george,1.0,CA,1635439331.0,74.0,54.66,-122.53,32.61,3.44
522.0,porkhov,87.0,RU,1635439389.0,91.0,57.91,29.7,48.09,5.19
523.0,aketi,67.0,CD,1635439383.0,96.0,3.0,22.96,72.19,2.84
524.0,ozernovskiy,100.0,RU,1635439390.0,86.0,51.28,157.18,42.58,5.75
525.0,visby,0.0,SE,1635439390.0,87.0,58.25,19.34,52.02,12.66
526.0,batemans bay,89.0,AU,1635439390.0,63.0,-38.96,154.2,61.11,6.2
527.0,houma,1.0,US,1635439390.0,45.0,26.93,-90.91,73.99,17.27
528.0,albion,40.0,US,1635439391.0,77.0,42.27,-84.94,60.19,13.8
529.0,coripata,80.0,BO,1635439391.0,69.0,-16.18,-67.4,85.01,4.47
530.0,pires do rio,34.0,BR,1635439391.0,35.0,-17.33,-48.14,89.6,7.72
531.0,nanakuli,90.0,US,1635439391.0,94.0,19.53,-159.86,75.15,3.44
532.0,palmer,75.0,US,1635439327.0,59.0,56.27,-145.67,54.73,3.0
533.0,juba,92.0,SD,1635439392.0,46.0,5.85,31.43,83.3,0.89
534.0,ossora,100.0,RU,1635439392.0,95.0,59.33,164.0,25.2,5.99
535.0,tandil,0.0,AR,1635439392.0,27.0,-36.41,-58.82,89.44,17.27
536.0,areosa,100.0,PT,1635439393.0,86.0,41.51,-9.28,65.32,18.48
537.0,yulara,1.0,AU,1635439393.0,13.0,-21.06,129.0,75.04,12.66
538.0,turayf,0.0,SA,1635439393.0,32.0,33.17,39.18,70.05,6.91
539.0,santa isabel do rio negro,99.0,BR,1635439393.0,66.0,1.18,-64.58,83.03,2.1
540.0,tambopata,20.0,PE,1635439394.0,46.0,-12.71,-70.11,93.09,3.44
541.0,korostyshiv,100.0,UA,1635439394.0,79.0,50.46,29.23,51.53,5.7
542.0,ahipara,21.0,NZ,1635439394.0,92.0,-31.72,170.75,57.65,5.01
543.0,bukama,60.0,CD,1635439394.0,53.0,-8.82,26.74,80.74,2.51
544.0,yarmouth,90.0,CA,1635439455.0,83.0,41.62,-67.16,52.97,24.0
545.0,jiexiu,29.0,CN,1635439455.0,64.0,37.41,111.84,52.93,4.9
546.0,bandarbeyla,2.0,SO,1635439455.0,67.0,8.28,57.97,78.49,8.97
547.0,kozulka,69.0,RU,1635439456.0,67.0,55.93,91.15,43.09,2.68
548.0,bollnas,100.0,SE,1635439456.0,98.0,62.19,15.81,55.13,11.61
549.0,bac lieu,98.0,VN,1635439456.0,84.0,7.99,107.1,79.93,8.9
550.0,alugan,18.0,PH,1635439456.0,82.0,14.62,128.29,79.41,5.86
