City_ID,City,Cloudiness,Country,Date,Humidity,Lat,Lng,Max Temp,Wind Speed
0.0,mataura,25.0,PF,1635438719.0,98.0,-71.08025562455755,-160.9973734473287,46.26,0.18
1.0,kindu,82.0,CD,1635438719.0,99.0,-2.192410688101674,25.430606035113357,66.78,2.42
2.0,chokurdakh,99.0,RU,1635438719.0,93.0,87.78304363295047,156.26308911283303,-2.7,3.22
3.0,puerto ayora,93.0,EC,1635438720.0,87.0,-2.5005911368101863,-112.32721360810915,76.96,4.0
4.0,san cristobal,56.0,EC,1635438720.0,60.0,-14.139552167137197,-91.47880727256452,77.18,6.31
5.0,gold coast,38.0,AU,1635438720.0,91.0,-27.607093617663885,154.55497745263455,75.0,1.01
6.0,dikson,59.0,RU,1635438720.0,94.0,75.2233697405596,84.69752335591988,6.31,7.9
7.0,vostok,16.0,RU,1635438510.0,93.0,48.48893687970224,151.75862178041285,29.41,2.89
8.0,williams lake,90.0,CA,1635438721.0,87.0,51.941967277408565,-122.97573796552228,36.97,4.61
9.0,hermanus,0.0,ZA,1635438721.0,84.0,-76.14567010226362,1.626298230904581,65.8,8.55
10.0,mahur,2.0,IN,1635438722.0,90.0,24.963799322661373,93.21803732544561,63.14,1.7
11.0,saint-augustin,1.0,CA,1635438723.0,41.0,50.225538313308476,-58.72023957428573,47.61,8.23
12.0,voh,5.0,NC,1635438723.0,92.0,-21.22154633978515,164.4356483791542,70.72,3.71
13.0,kuito,99.0,AO,1635438723.0,70.0,-11.71695998291176,16.282149288302435,65.64,4.9
14.0,kudymkar,97.0,RU,1635438724.0,83.0,58.75527990563003,54.72413452090302,23.25,12.26
15.0,victoria,33.0,US,1635438673.0,81.0,28.789782966050012,-97.39199476039784,78.33,1.01
16.0,yar-sale,100.0,RU,1635438724.0,95.0,73.82417213237787,71.71200232442527,21.7,16.64
17.0,kharian,0.0,PK,1635438724.0,41.0,32.91275784714634,74.18455452663295,69.15,3.69
18.0,buraydah,100.0,SA,1635438724.0,14.0,26.60688809803571,41.97871423765554,82.85,11.3
19.0,cape town,0.0,ZA,1635438541.0,71.0,-78.21489232349991,-14.790957912215248,70.12,1.01
20.0,punta arenas,75.0,CL,1635438497.0,48.0,-79.5563854450525,-106.74046320915079,60.91,23.02
21.0,kruisfontein,100.0,ZA,1635438725.0,88.0,-56.28972633817618,25.30813203904404,69.89,11.83
22.0,rikitea,23.0,PF,1635438725.0,82.0,-22.348001944566107,-135.61244279905293,74.3,6.62
23.0,saldanha,1.0,ZA,1635438725.0,84.0,-34.471838561181,8.976835857728815,68.05,8.7
24.0,avarua,20.0,CK,1635438726.0,78.0,-38.6606851687837,-164.34907361871893,71.65,4.61
25.0,fortuna,1.0,US,1635438726.0,96.0,36.397645380771465,-142.5139765125096,56.32,9.22
26.0,bethel,90.0,US,1635438726.0,70.0,61.7581539651639,-163.15958045514958,57.02,3.0
27.0,fort nelson,75.0,CA,1635438726.0,93.0,57.68240894436761,-124.01532432559964,27.99,0.0
28.0,leningradskiy,100.0,RU,1635438556.0,91.0,80.68163868017817,178.87741511450275,6.15,12.41
29.0,arraial do cabo,75.0,BR,1635438727.0,78.0,-32.12008632383222,-39.52962613025406,82.36,17.27
30.0,nabire,100.0,ID,1635438727.0,91.0,-2.934515346751212,134.45049302017878,75.25,3.49
31.0,pangoa,23.0,PE,1635438727.0,39.0,-12.009848978821495,-72.81022575778964,91.17,4.83
32.0,bilma,3.0,NE,1635438727.0,13.0,20.116676577883865,11.997008106093972,87.75,3.76
33.0,humberto de campos,75.0,BR,1635438728.0,45.0,-2.353705045519874,-43.65260433372427,90.7,7.72
34.0,wanaka,44.0,NZ,1635438728.0,82.0,-42.51464350001094,168.74845117984592,50.11,1.01
35.0,qaanaaq,100.0,GL,1635438729.0,92.0,89.41724935389107,-84.47854646856615,21.79,8.52
36.0,ixtapa,1.0,MX,1635438572.0,61.0,1.108209711357162,-109.41226294710077,83.23,3.44
37.0,gizo,26.0,SB,1635438729.0,73.0,-12.644045526515555,155.53254383409336,82.62,9.64
38.0,tongliao,3.0,CN,1635438729.0,49.0,43.827762277255914,122.17290580571591,49.41,8.08
39.0,lebu,1.0,CL,1635438663.0,73.0,-33.09994046943744,-81.619698440598,59.22,13.65
40.0,yellapur,46.0,IN,1635438730.0,72.0,15.133024935504807,74.78487783931695,65.73,2.66
41.0,hua hin,66.0,TH,1635438730.0,89.0,12.78180337898199,99.50022393931135,76.51,7.27
42.0,kaitangata,93.0,NZ,1635438730.0,96.0,-68.94861052065926,177.39264332984652,49.19,2.75
43.0,hilo,1.0,US,1635438603.0,84.0,10.201877387036149,-159.65411856482584,69.8,6.91
44.0,iqaluit,75.0,CA,1635438614.0,80.0,62.13555334089213,-71.9041294078934,33.53,4.0
45.0,ushuaia,20.0,AR,1635438612.0,39.0,-64.72029900913112,-43.64600722454895,60.46,19.57
46.0,bredasdorp,0.0,ZA,1635438730.0,73.0,-86.03083185275489,22.11705416295564,65.28,5.39
47.0,bonavista,100.0,CA,1635438731.0,71.0,50.74320388021084,-48.331321508821844,41.11,15.43
48.0,buka,100.0,UZ,1635438731.0,82.0,40.91904419339656,69.19777284121648,45.52,2.68
49.0,kapaa,75.0,US,1635438791.0,99.0,13.617547897766102,-173.74767819993406,73.38,6.91
50.0,andenes,75.0,NO,1635438792.0,87.0,70.47758378979461,14.734831757204319,43.07,19.57
51.0,ponta do sol,88.0,CV,1635438792.0,66.0,16.8578678476496,-32.34581081679079,75.13,6.96
52.0,el doncello,90.0,CO,1635438792.0,74.0,1.6303102441241606,-75.0152344814054,81.55,2.37
53.0,faanui,61.0,PF,1635438792.0,81.0,-9.07069535299783,-151.25534876859186,78.69,7.94
54.0,hobart,75.0,AU,1635438717.0,93.0,-64.01214401616298,152.7752850601974,50.02,1.01
55.0,vallenar,38.0,CL,1635438793.0,21.0,-26.85376660840204,-74.95085811094835,87.01,9.53
56.0,tiksi,100.0,RU,1635438667.0,96.0,86.93468971717263,128.62460422378706,11.08,4.47
57.0,busselton,22.0,AU,1635438793.0,80.0,-50.789710892457194,95.28534651271087,42.04,8.55
58.0,ndele,60.0,CF,1635438793.0,65.0,9.212155091464226,20.554703108775243,81.27,2.35
59.0,haines junction,47.0,CA,1635438793.0,74.0,60.05214393818048,-140.09284714799418,22.95,3.44
60.0,jamestown,1.0,SH,1635438794.0,69.0,-26.087891260793427,-15.895246910320878,58.33,7.0
61.0,port alfred,100.0,ZA,1635438794.0,91.0,-55.93206919485722,36.26247252079105,68.18,13.27
62.0,kaeo,28.0,NZ,1635438794.0,96.0,-29.174220513789287,173.17725517529414,54.32,5.73
63.0,barrow,90.0,US,1635438794.0,86.0,71.11150944891634,-156.17291257028998,21.22,8.05
64.0,semey,0.0,KZ,1635438795.0,100.0,49.75368311141895,78.50473382828801,25.02,2.24
65.0,ilulissat,20.0,GL,1635438795.0,58.0,81.84260608243281,-44.105900272770896,21.22,3.44
66.0,namatanai,26.0,PG,1635438795.0,80.0,-2.4663323376062607,154.1154146168874,80.17,8.14
67.0,port hedland,0.0,AU,1635438796.0,69.0,-22.861209163235443,120.14456531258026,75.25,9.22
68.0,san quintin,0.0,MX,1635438796.0,39.0,16.635075014522855,-131.74730347230337,73.56,2.53
69.0,albany,61.0,AU,1635438795.0,76.0,-69.63164241454726,98.93834242915187,56.68,3.04
70.0,new norfolk,100.0,AU,1635438796.0,83.0,-70.02182125447527,135.20560047333834,49.66,4.0
71.0,san patricio,0.0,MX,1635438796.0,18.0,15.444612971675113,-106.91072538763787,81.01,18.21
72.0,quinabigan,93.0,PH,1635438797.0,90.0,13.005199683938216,121.52380986925647,76.59,7.81
73.0,bluff,4.0,NZ,1635438797.0,89.0,-80.6534001290911,154.2876051213346,51.58,3.27
74.0,tasiilaq,100.0,GL,1635438797.0,74.0,69.4501702691721,-42.29737614571269,32.16,9.15
75.0,braco do norte,52.0,BR,1635438798.0,66.0,-27.907259916784405,-49.21634856292849,85.55,3.69
76.0,torbay,90.0,CA,1635438798.0,83.0,45.793729947511764,-47.43223770772286,40.57,16.11
77.0,flagstaff,1.0,US,1635438785.0,42.0,36.77395426948027,-111.62820718624532,57.52,14.0
78.0,linguere,0.0,SN,1635438799.0,44.0,15.084502924339674,-14.335920221365086,97.02,4.61
79.0,hobyo,41.0,SO,1635438799.0,75.0,2.351268996648386,48.71650374398769,80.89,9.31
80.0,sitka,75.0,US,1635438799.0,87.0,47.03097615615755,-139.21805431488906,37.29,10.36
81.0,namibe,20.0,AO,1635438799.0,65.0,-16.703094872724833,4.188072133595313,70.61,16.49
82.0,tecoanapa,24.0,MX,1635438800.0,71.0,10.444540931003047,-100.20671148677349,84.69,3.8
83.0,krasnoye,41.0,RU,1635438800.0,75.0,54.76072887497759,85.2949317846415,45.19,2.91
84.0,atuona,42.0,PF,1635438800.0,69.0,-2.941509925355959,-117.92990036439744,78.64,18.41
85.0,thompson,90.0,CA,1635438800.0,100.0,66.84259819841807,-90.84820014435145,39.36,8.05
86.0,swellendam,74.0,ZA,1635438801.0,76.0,-33.16561306328826,20.63454688187258,67.33,10.02
87.0,hearst,88.0,CA,1635438801.0,58.0,51.108487899252935,-82.7034813578242,44.85,6.76
88.0,upernavik,41.0,GL,1635438801.0,63.0,77.97864177274772,-54.21869558243981,19.24,5.97
89.0,luderitz,2.0,NA,1635438802.0,83.0,-29.282785935272265,12.347517460027348,61.48,10.96
90.0,bussolengo,0.0,IT,1635438802.0,62.0,45.46535200009191,10.859110168002104,60.06,3.44
91.0,okhotsk,45.0,RU,1635438802.0,91.0,59.11004511176748,143.68070682897195,19.56,7.81
92.0,roald,40.0,NO,1635438802.0,87.0,71.53596230951479,1.7761566023467878,53.91,5.75
93.0,airai,97.0,PW,1635438803.0,91.0,16.374829973239073,138.8831314951256,63.14,1.19
94.0,nome,90.0,US,1635438803.0,79.0,64.80499420357106,-164.27216756290193,17.67,0.0
95.0,cabo san lucas,1.0,MX,1635438678.0,61.0,12.95343853688054,-118.34907074043913,83.52,3.0
96.0,bolisong,45.0,PH,1635438803.0,84.0,9.714733235140088,123.11477818858572,79.34,5.7
97.0,pilar,59.0,PH,1635438803.0,53.0,10.482245177908226,128.08393690117646,85.93,11.77
98.0,constitucion,7.0,MX,1635438804.0,59.0,23.011521768146835,-113.67072626841001,66.54,16.42
99.0,makakilo city,90.0,US,1635438804.0,89.0,5.071958832274149,-167.1597153585474,73.72,3.44
100.0,laje,38.0,BR,1635438804.0,33.0,-10.528338090903418,-40.78993512337925,89.35,9.66
101.0,katsuura,40.0,JP,1635438805.0,62.0,21.564276286313188,149.85396184122055,62.19,19.77
102.0,yuxia,100.0,CN,1635438805.0,75.0,33.416443562302774,108.78199206856777,48.81,2.17
103.0,bodden town,40.0,KY,1635438684.0,66.0,18.163546455576935,-80.52280819764863,89.6,10.36
104.0,jinchang,46.0,CN,1635438865.0,40.0,41.57288528661326,102.38251373043403,45.7,7.11
105.0,richards bay,98.0,ZA,1635438865.0,69.0,-34.63716108692488,37.81362289479,67.69,14.07
106.0,praya,75.0,ID,1635438866.0,94.0,-11.712405380911306,116.20192836116615,73.94,8.05
107.0,matucana,43.0,PE,1635438866.0,47.0,-12.068738027229529,-76.40736072093017,70.83,4.63
108.0,georgetown,40.0,SH,1635438600.0,90.0,-17.997585149231682,-21.075433653722627,78.73,9.22
109.0,gigmoto,75.0,PH,1635438866.0,86.0,14.430548267568895,126.43072031040111,79.3,13.13
110.0,kodiak,1.0,US,1635438867.0,86.0,40.50871175676659,-153.41576018498418,27.91,5.75
111.0,yellowknife,75.0,CA,1635438661.0,100.0,89.52657129307352,-100.32397794952988,34.41,4.61
112.0,katherine,75.0,AU,1635438867.0,58.0,-16.658854440914524,131.32358588621418,86.32,9.22
113.0,lompoc,1.0,US,1635438867.0,62.0,19.724418033952176,-131.9397256437283,80.08,8.05
114.0,bud,100.0,NO,1635438868.0,96.0,69.2698068298771,4.957445997214705,55.35,8.61
115.0,hailey,20.0,US,1635438868.0,81.0,43.677099471356485,-114.42289141134746,41.9,5.75
116.0,slave lake,1.0,CA,1635438868.0,48.0,55.47697927685732,-114.21006478012852,40.98,18.41
117.0,hervey bay,4.0,AU,1635438868.0,82.0,-22.443397234177297,155.4773568238448,75.02,16.51
118.0,cidreira,4.0,BR,1635438869.0,75.0,-60.146782988665706,-21.431961352197362,72.28,16.53
119.0,vaini,40.0,TO,1635438869.0,83.0,-41.87782406305777,-168.5525433813657,73.56,8.05
120.0,kahului,1.0,US,1635438783.0,87.0,22.85103519603311,-154.1251549457065,75.85,0.0
121.0,ribeira grande,40.0,PT,1635438869.0,77.0,26.16292134286543,-43.65841998637595,68.4,14.23
122.0,monteiro,37.0,BR,1635438870.0,24.0,-8.12217172049617,-36.99193785789734,94.05,13.44
123.0,henties bay,77.0,NA,1635438870.0,80.0,-21.404492177186057,10.939051409356466,66.85,9.37
124.0,puerto leguizamo,87.0,CO,1635438870.0,64.0,0.0007270832034294017,-75.31800047529278,84.47,2.84
125.0,inirida,100.0,CO,1635438870.0,78.0,2.49565623682534,-67.641909197515,81.64,2.55
126.0,nikolskoye,100.0,RU,1635438871.0,88.0,39.294266267622135,170.29841680900256,48.87,6.6
127.0,lagoa,99.0,PT,1635438871.0,74.0,45.874997525272164,-32.68517627318107,66.88,12.82
128.0,aginskoye,4.0,RU,1635438871.0,73.0,54.35775340067167,95.69894460936212,35.1,5.21
129.0,hofn,90.0,IS,1635438871.0,87.0,66.96570858624278,-13.813330643079155,46.42,21.85
130.0,aukra,75.0,NO,1635438872.0,93.0,62.80942050166374,6.891585041403943,53.76,3.44
131.0,buala,73.0,SB,1635438872.0,81.0,0.2901655880610434,162.7353887514546,80.73,5.14
132.0,acapulco,1.0,MX,1635438872.0,74.0,6.184099907944528,-103.39849015884847,84.02,3.44
133.0,port elizabeth,20.0,ZA,1635438785.0,88.0,-83.40843924017236,37.683693214275934,72.1,2.3
134.0,pangnirtung,90.0,CA,1635438873.0,100.0,65.57107916962468,-65.67247377776812,32.0,2.3
135.0,pisco,20.0,PE,1635438873.0,82.0,-27.169247675103378,-94.02228815102889,64.45,9.22
136.0,pevek,99.0,RU,1635438873.0,95.0,77.05030936157416,165.61797074932912,2.07,2.93
137.0,munak,0.0,IN,1635438873.0,45.0,29.440126845412422,76.77573101499905,70.65,3.87
138.0,korla,37.0,CN,1635438874.0,41.0,35.48740969933402,84.61338477647331,49.68,1.86
139.0,kangaba,99.0,ML,1635438874.0,81.0,11.959884193710025,-8.726113873320145,76.39,6.51
140.0,norsup,1.0,VU,1635438874.0,82.0,-16.953473841231528,164.62393379248346,78.35,3.87
141.0,mar del plata,0.0,AR,1635438874.0,31.0,-43.242203960162456,-48.38704771631882,93.22,14.97
142.0,seoul,0.0,KR,1635438608.0,87.0,36.18834337693447,128.57182283178707,49.39,1.14
143.0,kysyl-syr,100.0,RU,1635438875.0,82.0,63.34165911696809,124.54608683302484,20.57,12.97
144.0,longyearbyen,0.0,SJ,1635438875.0,79.0,89.74565436106366,25.891317620352652,19.24,6.91
145.0,esperance,97.0,AU,1635438875.0,62.0,-54.699375046504365,127.35846163773562,48.04,8.21
146.0,qui nhon,99.0,VN,1635438876.0,90.0,13.626673826242865,108.86763082986573,76.68,6.62
147.0,anadyr,0.0,RU,1635438876.0,84.0,62.46683876086772,176.48221749773876,-7.1,6.71
148.0,kropotkin,53.0,RU,1635438876.0,54.0,58.860644616436815,117.3683473970143,46.2,4.81
149.0,omsukchan,72.0,RU,1635438791.0,93.0,65.41033782683823,157.82997763526328,6.17,6.49
150.0,east london,0.0,ZA,1635438876.0,83.0,-45.30659658122061,38.192068791282196,68.94,14.97
151.0,orthez,61.0,FR,1635438877.0,50.0,43.367482208975474,-1.067024969815975,71.04,2.64
152.0,angoche,17.0,MZ,1635438877.0,69.0,-15.93461009355326,40.018854266138675,76.23,15.97
153.0,auraiya,0.0,IN,1635438877.0,51.0,26.440136858367737,79.55255032578702,71.28,1.59
154.0,saskylakh,100.0,RU,1635438877.0,98.0,89.38045157745086,120.9942431338958,-0.85,5.12
155.0,carnarvon,0.0,AU,1635438878.0,63.0,-25.51279711473613,100.88623549069024,66.27,21.85
156.0,lavrentiya,100.0,RU,1635438878.0,85.0,75.51094833070923,-170.49468860348406,15.84,7.67
157.0,san luis,4.0,MX,1635438690.0,20.0,29.439866650753913,-114.67533603291443,92.21,22.75
158.0,saint-philippe,11.0,RE,1635438878.0,79.0,-51.64244295072117,66.80924859373286,76.59,3.65
159.0,mount gambier,90.0,AU,1635438644.0,100.0,-48.689504585882126,131.16719577005864,48.11,17.27
160.0,jalu,79.0,LY,1635438939.0,36.0,29.12592474036998,23.435162021762096,77.59,3.2
161.0,norman wells,75.0,CA,1635438939.0,93.0,66.89721131758239,-120.57639214339338,19.44,3.44
162.0,provideniya,99.0,RU,1635438939.0,87.0,44.11036938525382,-175.5928800572375,11.88,4.97
163.0,vryburg,94.0,ZA,1635438939.0,70.0,-26.406029297452577,25.012849548884958,65.46,16.06
164.0,matara,97.0,LK,1635438940.0,90.0,-1.0084074252031883,81.23198300553764,77.36,7.81
165.0,jalingo,10.0,NG,1635438940.0,57.0,8.161727654251195,12.047735704293984,84.63,3.29
166.0,paita,33.0,PE,1635438940.0,68.0,-5.8385489059048865,-82.89761035516324,72.16,15.1
167.0,warmbad,23.0,NA,1635438940.0,51.0,-28.532509932278614,18.686926356335903,72.82,19.22
168.0,grand gaube,3.0,MU,1635438941.0,70.0,-12.430701982875291,61.664389452441725,75.38,5.01
169.0,ancud,68.0,CL,1635438941.0,70.0,-38.919522501762145,-105.69851653058582,60.33,7.81
170.0,dodola,96.0,ET,1635438941.0,78.0,6.860447696387794,39.505568902903036,55.63,2.37
171.0,hernani,0.0,ES,1635438941.0,49.0,43.24494232071149,-1.8780072842924085,71.42,1.99
172.0,antofagasta,18.0,CL,1635438677.0,64.0,-22.874687370916632,-78.76801342324036,63.68,8.93
173.0,guerrero negro,0.0,MX,1635438828.0,32.0,18.427387764173943,-128.2240712939632,76.33,1.68
174.0,nishihara,20.0,JP,1635438942.0,64.0,19.078177405653875,137.19485427355318,72.68,5.75
175.0,beringovskiy,29.0,RU,1635438942.0,86.0,54.19257740002607,176.4028849654713,5.18,8.57
176.0,alice springs,62.0,AU,1635438942.0,27.0,-22.965935772742327,135.04755396952146,76.55,5.75
177.0,castro,99.0,CL,1635438943.0,77.0,-50.12394416313742,-104.02327235559942,70.21,6.49
178.0,berdigestyakh,77.0,RU,1635438789.0,82.0,63.118653631604644,125.18440578961872,20.41,10.56
179.0,mahebourg,20.0,MU,1635438943.0,78.0,-42.71899829801126,75.90930606834101,75.25,11.5
180.0,ostersund,0.0,SE,1635438943.0,93.0,64.55685199126111,15.72100800471813,46.85,8.05
181.0,gorontalo,11.0,ID,1635438943.0,95.0,0.664486852017248,123.34025157832417,75.51,2.24
182.0,kemijarvi,100.0,FI,1635438944.0,99.0,68.42415763458973,28.189993917306225,35.74,8.48
183.0,alekseyevka,100.0,RU,1635438944.0,87.0,52.424974525127396,47.79189627206193,46.74,10.63
184.0,la romana,40.0,DO,1635438944.0,70.0,17.883861010713417,-68.73590446294988,88.16,13.8
185.0,walvis bay,0.0,NA,1635438944.0,31.0,-26.026828133587486,3.6401592630712685,77.95,16.11
186.0,nador,20.0,MA,1635438945.0,77.0,34.39234756055134,-3.139733275921401,71.67,4.61
187.0,brigantine,40.0,US,1635438945.0,72.0,35.78431818616406,-70.28690740418466,62.65,0.0
188.0,evensk,100.0,RU,1635438945.0,95.0,62.54212275412078,157.7711540484928,10.78,6.24
189.0,ulaangom,100.0,MN,1635438945.0,61.0,49.60849425936328,92.5977917935989,36.55,3.22
190.0,long,52.0,TH,1635438946.0,95.0,18.066526568168598,99.71199247316235,72.77,2.51
191.0,dwarka,2.0,IN,1635438946.0,51.0,17.88932792390017,64.3801677020239,82.69,10.4
192.0,bintulu,40.0,MY,1635438946.0,100.0,2.8860208363258266,113.94976613571606,75.61,3.0
193.0,ouadda,77.0,CF,1635438946.0,89.0,7.686161748730029,22.19223125195475,70.32,3.44
194.0,semnan,8.0,IR,1635438947.0,46.0,35.087145854440834,53.39396404639746,52.84,0.92
195.0,noyabrsk,100.0,RU,1635438947.0,97.0,63.90671321501725,75.29111382322216,29.23,17.76
196.0,mantua,8.0,CU,1635438947.0,71.0,21.380918453107327,-84.89684042195384,62.92,1.54
197.0,mirabad,3.0,AF,1635438948.0,31.0,29.975046300742733,60.74134324882368,65.07,7.58
198.0,chuy,0.0,UY,1635438948.0,50.0,-49.46677074503705,-39.2093561544618,79.61,10.85
199.0,bambous virieux,20.0,MU,1635438948.0,78.0,-33.25589197379442,83.90161723982345,75.22,11.5
200.0,kiama,62.0,AU,1635438948.0,85.0,-35.816678096451234,152.6709186180119,68.0,7.36
201.0,maine-soroa,27.0,NE,1635438949.0,8.0,13.308940317674356,11.993441954315813,92.05,11.3
202.0,otjimbingwe,53.0,NA,1635438949.0,39.0,-22.292876041851173,15.913805090291333,79.38,15.05
203.0,shingu,0.0,JP,1635438949.0,82.0,31.052550262813583,136.25954934991142,52.84,7.34
204.0,copiapo,2.0,CL,1635438949.0,22.0,-26.959789690586,-72.44794186902897,58.69,8.63
205.0,bredy,87.0,RU,1635438950.0,66.0,52.59979968053787,60.64752643023451,35.51,16.93
206.0,severo-kurilsk,80.0,RU,1635438950.0,87.0,44.868674710719404,160.98294887894968,42.01,5.61
207.0,mwingi,17.0,KE,1635438950.0,45.0,-0.6109552784991052,38.044833000068394,76.28,8.37
208.0,rio grande,0.0,BR,1635438950.0,64.0,-37.04106775386292,-46.088023521372946,86.11,12.5
209.0,vila velha,20.0,BR,1635438668.0,65.0,-28.69599823021335,-27.233235455688572,82.35,12.66
210.0,hithadhoo,80.0,MV,1635438940.0,75.0,-8.630313898427687,85.1418489534887,82.99,17.2
211.0,meulaboh,94.0,ID,1635438951.0,88.0,0.45087988697390813,93.46816335786599,77.79,7.02
212.0,pinega,20.0,RU,1635438951.0,95.0,64.46573482090926,43.02631052918019,19.76,4.36
213.0,tuktoyaktuk,90.0,CA,1635438951.0,100.0,81.44817073706335,-124.3014633629286,26.6,3.44
214.0,bengkulu,100.0,ID,1635438952.0,86.0,-9.418701235420045,94.88566362254892,77.27,3.8
215.0,nacala,12.0,MZ,1635439012.0,62.0,-13.880782292262737,41.222797646694374,77.22,17.31
216.0,hamilton,90.0,BM,1635438730.0,84.0,26.265317344518294,-63.031128482776836,56.95,1.01
217.0,latung,71.0,PH,1635439012.0,73.0,3.622690463657179,121.76541555993339,83.46,4.85
218.0,dehloran,1.0,IR,1635439012.0,17.0,31.653657684285747,46.45511085093406,77.94,5.19
219.0,brownsville,1.0,US,1635439013.0,31.0,25.661290193248377,-95.41679575206088,81.01,5.01
220.0,coahuayana,17.0,MX,1635439013.0,60.0,-2.4324033860914795,-114.52756083272344,85.48,1.81
221.0,butaritari,100.0,KI,1635439013.0,71.0,11.14736035908524,174.59342715467238,82.06,11.77
222.0,zhigansk,100.0,RU,1635439013.0,90.0,72.13303571123689,122.6772613117439,19.33,13.85
223.0,havoysund,100.0,NO,1635439014.0,92.0,76.80761759775356,22.620344751166556,32.88,21.79
224.0,aljezur,94.0,PT,1635439014.0,72.0,36.42647867047063,-10.189718794076583,67.24,7.2
225.0,almaznyy,95.0,RU,1635439014.0,69.0,62.687610451443845,115.38996105422109,44.74,7.81
226.0,bakel,100.0,SN,1635439014.0,20.0,13.916290838544924,-12.357525102457487,97.63,3.58
227.0,walajapet,100.0,IN,1635439015.0,84.0,13.031830563734673,79.42732930565228,74.64,3.69
228.0,cherskiy,51.0,RU,1635439015.0,95.0,89.77943530108567,160.7516206741489,-18.74,4.0
229.0,salinopolis,26.0,BR,1635439015.0,77.0,6.872152389123613,-43.186150127794065,81.59,6.64
230.0,ghanzi,58.0,BW,1635439015.0,53.0,-21.845012361811982,21.647964264507834,74.37,7.36
231.0,malindi,20.0,KE,1635439016.0,74.0,-3.757288569362075,40.81009661038871,80.76,8.05
232.0,itarema,10.0,BR,1635439016.0,54.0,5.460074256060636,-35.35383761710446,88.65,19.08
233.0,khasan,0.0,RU,1635439016.0,53.0,40.49157461623483,129.78807546818808,45.52,5.39
234.0,trairi,12.0,BR,1635439008.0,54.0,-1.9352540608821158,-38.473952134836225,87.71,16.11
235.0,beinamar,40.0,TD,1635439016.0,53.0,8.652480867869485,14.817111012315166,84.06,2.75
236.0,la ronge,40.0,CA,1635439017.0,75.0,61.618781222717246,-104.17590847513301,39.45,4.61
237.0,elk,31.0,PL,1635439017.0,89.0,53.72217504967455,22.360698200609903,50.86,6.8
238.0,arevashogh,0.0,AM,1635439017.0,45.0,40.91666996068736,44.27413522324699,35.58,1.9
239.0,shafranovo,100.0,RU,1635439017.0,69.0,54.19717796033444,54.71131504501608,36.9,14.07
240.0,chumikan,43.0,RU,1635439018.0,74.0,56.36501997147079,134.89641880293402,36.66,18.25
241.0,taoudenni,68.0,ML,1635439018.0,22.0,25.494750418591423,-3.2743256582338915,93.11,3.02
242.0,klaksvik,7.0,FO,1635439018.0,89.0,76.94026639017142,-1.6530203182676644,49.12,21.41
243.0,tarakan,95.0,ID,1635439019.0,80.0,2.705291578235446,119.23986747451477,80.22,3.67
244.0,yarada,90.0,IN,1635439019.0,74.0,13.974085117086744,87.56239708111673,84.52,11.5
245.0,kalmunai,78.0,LK,1635439019.0,82.0,7.519082357926891,82.78309183574362,79.41,7.14
246.0,otane,99.0,NZ,1635439019.0,99.0,-43.20064142987625,179.9012684998201,60.01,1.48
247.0,gao,58.0,ML,1635439020.0,13.0,17.425244123474755,-1.2945948855490599,97.2,5.21
248.0,lorengau,64.0,PG,1635439020.0,79.0,2.3993412889899446,144.1011822943883,81.46,5.75
249.0,laguna,40.0,BR,1635439020.0,97.0,-33.78552577696657,-42.86923136393091,67.08,3.44
250.0,nanortalik,82.0,GL,1635439021.0,66.0,61.78648551658861,-44.18021386988207,37.22,4.9
251.0,enshi,99.0,CN,1635439021.0,88.0,31.44838983244216,109.53758436294481,58.19,2.35
252.0,asfi,8.0,MA,1635438989.0,79.0,33.389618912998,-11.56631626070822,69.15,11.16
253.0,qadian,0.0,IN,1635439021.0,47.0,31.845779100091235,75.46163659535324,64.08,3.42
254.0,odweyne,0.0,SO,1635439022.0,40.0,9.330762235686919,45.687005126491414,74.35,10.2
255.0,olafsvik,93.0,IS,1635439022.0,80.0,64.64120759224465,-27.469497597410083,42.57,25.57
256.0,yinchuan,40.0,CN,1635439023.0,34.0,37.85996953716946,106.60236023779044,51.4,5.08
257.0,belem,40.0,BR,1635438807.0,79.0,-1.5325286763944206,-48.51245806662297,84.24,11.5
258.0,barla,33.0,RO,1635439023.0,48.0,44.45073790652006,24.751562372414668,52.14,1.28
259.0,praia,75.0,CV,1635439023.0,94.0,12.717849697485775,-22.398041478840497,73.94,8.05
260.0,riyadh,91.0,SA,1635439024.0,14.0,22.485472932850925,46.86743572958906,86.14,9.26
261.0,atikokan,100.0,CA,1635439024.0,81.0,47.70545930451553,-90.78223649134516,45.81,4.99
262.0,laramie,1.0,US,1635439024.0,53.0,41.82715486181954,-106.27222194581705,48.36,5.99
263.0,geraldton,3.0,CA,1635439024.0,62.0,51.2791147577054,-88.55221635333972,55.81,12.66
264.0,cap malheureux,2.0,MU,1635439025.0,70.0,-17.188701995216533,55.56721809072789,75.47,5.01
265.0,touros,86.0,BR,1635439025.0,52.0,-1.7099782995216515,-26.685441576692597,88.7,18.66
266.0,viedma,54.0,AR,1635439025.0,12.0,-41.35794976660689,-61.485244416563106,100.49,20.18
267.0,codrington,100.0,AG,1635439025.0,94.0,25.264014134338964,-57.72137320776753,50.4,34.61
268.0,kota,0.0,IN,1635439026.0,35.0,24.451098304083885,83.36242219196419,72.77,4.38
269.0,saint-prosper,20.0,CA,1635439026.0,51.0,46.46357354839009,-69.82119225797284,44.31,10.4
270.0,nikolsk,100.0,RU,1635439026.0,91.0,53.5054823203898,45.92038653870483,42.01,12.08
271.0,manaus,75.0,BR,1635438848.0,79.0,-0.4729209100356968,-60.18180265779,84.7,4.61
272.0,andijon,100.0,UZ,1635439086.0,55.0,40.55064864420538,72.78255612817478,52.88,9.33
273.0,mozhga,100.0,RU,1635439087.0,87.0,56.3562929190505,52.20845097304911,40.68,11.48
274.0,grand-santi,23.0,GF,1635439087.0,28.0,1.6977861402081373,-54.46236141556183,98.91,2.95
275.0,albert town,92.0,JM,1635439087.0,57.0,18.224255299335184,-77.55129386971534,79.3,6.06
276.0,beloha,38.0,MG,1635439087.0,59.0,-33.3377985563537,41.87602071896606,65.48,13.94
277.0,manicore,89.0,BR,1635439088.0,59.0,-7.030357972932691,-59.67881871542022,89.04,2.64
278.0,cururupu,47.0,BR,1635439088.0,51.0,-0.333870199416225,-43.33843335142146,88.79,6.49
279.0,khatanga,100.0,RU,1635439088.0,98.0,71.64104754240091,100.47344380992001,-4.0,6.38
280.0,montepuez,51.0,MZ,1635439088.0,41.0,-12.988493532781817,39.57233302758479,82.02,8.99
281.0,nelson bay,46.0,AU,1635439089.0,84.0,-35.99800880691841,155.5325906154664,70.68,6.51
282.0,scottsbluff,1.0,US,1635439089.0,42.0,42.14213217320457,-103.29458218573723,48.29,10.0
283.0,ginda,0.0,ER,1635439089.0,46.0,16.065114257527284,39.536659592885115,50.32,6.11
284.0,mehamn,40.0,NO,1635439090.0,80.0,83.96183863576334,28.57852856860856,30.38,24.16
285.0,sola,22.0,VU,1635439090.0,76.0,-14.294726129389588,169.95293316194233,80.56,13.87
286.0,port augusta,13.0,AU,1635439090.0,73.0,-29.338577582891006,135.94429088120376,59.7,15.21
287.0,general pico,79.0,AR,1635439090.0,15.0,-35.342057606840136,-63.633996520731856,98.76,19.73
288.0,vestmanna,75.0,FO,1635439091.0,100.0,67.169286198457,-10.12156808185631,47.32,16.11
289.0,bairiki,40.0,KI,1635439091.0,78.0,0.889255074031226,164.39209985995655,80.6,8.05
290.0,lundazi,76.0,ZM,1635439091.0,54.0,-12.113812908968939,32.903211068951606,72.68,8.97
291.0,waipawa,100.0,NZ,1635439091.0,96.0,-43.14572805950412,175.55366807652575,56.44,3.78
292.0,kavieng,53.0,PG,1635439092.0,77.0,-1.010003454382499,151.47296850642277,82.33,10.96
293.0,melo,0.0,UY,1635439092.0,47.0,-32.804423712710076,-54.04697830428117,82.54,11.81
294.0,mineiros,99.0,BR,1635439092.0,40.0,-17.784014236650492,-52.73501858530118,87.85,5.06
295.0,lumeje,85.0,AO,1635439092.0,57.0,-11.666997699336747,21.081712234451913,76.66,1.86
296.0,salinas,1.0,US,1635438835.0,82.0,36.53808323761956,-121.68796246425313,68.97,12.66
297.0,bonthe,58.0,SL,1635439093.0,72.0,4.0412117097390166,-17.413486386249048,82.89,8.88
298.0,harper,61.0,LR,1635439093.0,77.0,2.0084772957841466,-9.28241145693886,80.71,6.51
299.0,quatre cocos,12.0,MU,1635439093.0,75.0,-19.483637366704812,62.24575522909018,75.09,10.74
300.0,amos,0.0,CA,1635439094.0,46.0,49.106189003460145,-77.99684421343454,48.47,6.69
301.0,duldurga,2.0,RU,1635439094.0,73.0,50.268915533522005,113.7851919199307,35.38,5.06
302.0,kichera,3.0,RU,1635439094.0,78.0,56.51181981066958,110.93869483603191,17.55,4.94
303.0,gotsu,7.0,JP,1635439094.0,70.0,37.43234579743974,130.6199476863581,55.63,10.71
304.0,aklavik,91.0,CA,1635439095.0,96.0,79.30740472937975,-140.73839193525987,27.32,5.26
305.0,pfullendorf,5.0,DE,1635439095.0,87.0,47.94738479635737,9.254904916633933,52.02,0.51
306.0,valley city,1.0,US,1635438907.0,100.0,47.051652639697636,-98.15926953061289,47.39,17.27
307.0,chokwe,65.0,MZ,1635439095.0,58.0,-22.900528049664658,33.27269074406786,70.5,14.09
308.0,kendari,99.0,ID,1635439096.0,88.0,-3.408010038014311,121.79399497438112,76.82,0.6
309.0,marsa matruh,40.0,EG,1635439096.0,83.0,30.6488338363436,28.445037008752053,75.4,10.36
310.0,coihaique,75.0,CL,1635439096.0,39.0,-45.895685474620855,-71.1811495475877,62.55,9.22
311.0,mundo nuevo,19.0,MX,1635439097.0,82.0,19.053213735408832,-95.06247677747616,82.2,23.02
312.0,inhambane,94.0,MZ,1635439097.0,61.0,-26.634673977330152,39.09160534869392,69.4,10.74
313.0,campo grande,75.0,BR,1635439097.0,46.0,-20.612065057544513,-54.67651139151182,90.95,3.44
314.0,sumbawanga,31.0,TZ,1635439097.0,28.0,-7.871453349143238,32.16942932890379,71.31,3.27
315.0,tual,83.0,ID,1635439098.0,73.0,-8.238885913560836,135.00942541700175,83.73,3.96
316.0,vilyuysk,100.0,RU,1635439098.0,84.0,61.956952317986975,122.4013897965794,20.53,12.91
317.0,zhengjiatun,0.0,CN,1635439098.0,49.0,43.99568218647747,123.885559274755,44.49,6.82
318.0,san lorenzo,0.0,AR,1635439099.0,29.0,-27.9861699544483,-58.456098481799856,92.34,5.75
319.0,necochea,56.0,AR,1635439070.0,39.0,-47.01309918803246,-56.02801171735551,86.65,13.22
320.0,conway,90.0,US,1635438835.0,90.0,35.67881131427541,-92.53599354383422,57.72,5.01
321.0,dingle,81.0,IE,1635439099.0,91.0,47.584283090698136,-14.403958972684961,75.6,6.96
322.0,shimoda,67.0,JP,1635439099.0,73.0,28.325431577842053,139.34320164442175,57.11,15.95
323.0,marsh harbour,100.0,BS,1635439099.0,72.0,26.63048524182939,-76.98322278327548,83.03,13.69
324.0,aswan,0.0,EG,1635439100.0,15.0,23.04011743529813,35.402294256155756,94.3,5.75
325.0,naze,1.0,JP,1635439160.0,61.0,23.100288728976665,134.76491797831738,66.87,8.86
326.0,somanda,92.0,TZ,1635439160.0,29.0,-3.338517836608446,33.82035756120035,83.3,2.01
327.0,half moon bay,1.0,US,1635439160.0,81.0,32.054730267595176,-134.10147187762695,69.4,5.75
328.0,khunti,0.0,IN,1635439161.0,71.0,22.839059486044277,85.13560813810835,69.91,5.39
329.0,dalnerechensk,0.0,RU,1635439161.0,72.0,46.08557335222466,134.00656309334414,37.02,4.45
330.0,bubaque,22.0,GW,1635439161.0,64.0,2.269521500554063,-23.653104263793608,83.14,3.94
331.0,merauke,95.0,ID,1635438997.0,83.0,-11.035710203211309,140.1760615720059,79.36,9.66
332.0,adrar,100.0,DZ,1635439162.0,30.0,25.70755928285567,-2.561649407116505,86.11,10.31
333.0,tezu,0.0,IN,1635439162.0,56.0,30.942080009289626,97.66537585949402,67.01,4.34
334.0,conceicao do araguaia,26.0,BR,1635439162.0,25.0,-7.314938665757381,-49.04435772690482,99.72,6.93
335.0,severodvinsk,68.0,RU,1635439162.0,85.0,64.20481641642249,39.69025047441636,19.51,6.64
336.0,saint george,1.0,BM,1635438930.0,62.0,37.13171536841202,-62.93648808843895,64.35,0.0
337.0,belmonte,20.0,BR,1635439163.0,64.0,-16.10594085820665,-37.98609506369718,82.9,11.81
338.0,charters towers,0.0,AU,1635439163.0,88.0,-19.988246942444647,143.09372711417763,67.96,7.07
339.0,kirkuk,95.0,IQ,1635439163.0,30.0,35.463573259352515,44.354446679381,73.81,1.7
340.0,soyo,16.0,AO,1635439164.0,79.0,-8.791589155294034,6.006365637168614,82.45,12.21
341.0,barsovo,100.0,RU,1635439164.0,97.0,59.898437930982794,73.47791238252765,32.13,13.47
342.0,kyabe,42.0,TD,1635439164.0,59.0,9.333722580419064,18.756964993987054,82.11,6.2
343.0,ocos,21.0,GT,1635439164.0,75.0,11.897583255778173,-93.98892690268735,89.73,5.77
344.0,margate,0.0,ZA,1635439165.0,75.0,-38.1949156870557,39.93176476036231,58.71,5.01
345.0,kavaratti,100.0,IN,1635439165.0,77.0,9.366208478696848,67.04188901755975,80.62,3.94
346.0,ballina,24.0,IE,1635439165.0,91.0,57.44233647239659,-11.673730108816045,73.36,14.97
347.0,arkadak,100.0,RU,1635439165.0,84.0,51.6368226274206,43.52085884791961,44.65,12.1
348.0,wamba,21.0,CD,1635439166.0,68.0,2.1473832778500395,27.510299659169135,81.34,3.74
349.0,changying,88.0,CN,1635439166.0,78.0,34.439710255403895,114.61310133009135,33.3,3.0
350.0,puerto colombia,100.0,CO,1635438987.0,68.0,13.839179452140115,-76.06660755579551,86.09,3.85
351.0,omachi,3.0,JP,1635439166.0,70.0,36.605304725465544,137.6657401906653,44.38,4.07
352.0,tessalit,97.0,ML,1635439166.0,13.0,24.35769373304258,3.4043718119162065,91.92,13.47
353.0,zmiyiv,100.0,UA,1635439167.0,79.0,49.71087369649592,36.232756648522724,50.61,10.42
354.0,chicama,76.0,PE,1635439167.0,61.0,-12.194212205482259,-85.58299487981964,64.94,11.03
355.0,tutoia,93.0,BR,1635439167.0,62.0,1.3391980252868052,-41.32072237763421,93.18,13.31
356.0,muisne,100.0,EC,1635439168.0,84.0,2.7640228977910795,-84.2012280004752,76.6,10.71
357.0,hereford,100.0,US,1635439168.0,69.0,34.751021480951636,-102.38161868380436,59.02,1.01
358.0,naron,100.0,ES,1635439168.0,65.0,46.29140301427216,-8.772696837913855,63.01,15.75
359.0,saint-pierre,75.0,RE,1635439168.0,66.0,-24.491558244043247,53.39882652173091,76.68,3.44
360.0,ejby,12.0,DK,1635439169.0,87.0,55.741793110282345,11.825401149020479,53.73,6.91
361.0,salalah,20.0,OM,1635439169.0,78.0,15.492826627163765,58.0501823271631,80.69,5.75
362.0,pontianak,75.0,ID,1635439169.0,100.0,-0.9130801576240657,109.98441987243069,76.98,2.3
363.0,kirakira,18.0,SB,1635439170.0,84.0,-12.719472464520294,163.0878395144793,80.38,4.7
364.0,ust-ilimsk,92.0,RU,1635439170.0,74.0,58.75074492130676,102.26718041488488,22.8,4.7
365.0,sumbe,49.0,AO,1635439170.0,80.0,-10.07275133186954,13.530517661018365,75.56,10.58
366.0,la rioja,65.0,AR,1635438995.0,41.0,-29.194133897216723,-67.74136525524287,55.49,4.25
367.0,isangel,4.0,VU,1635439170.0,89.0,-22.711598851335324,177.93550859909516,75.18,9.8
368.0,providencia,0.0,MX,1635439171.0,29.0,28.811170645333377,-112.19457746518711,76.21,3.0
369.0,tongren,100.0,CN,1635439171.0,95.0,27.638461018862316,108.0956377355435,56.91,1.19
370.0,kalianget,87.0,ID,1635439171.0,76.0,-5.737556323145526,115.23712707594393,83.28,4.88
371.0,the pas,90.0,CA,1635439171.0,93.0,53.80512579044799,-101.29865942820723,41.02,8.05
372.0,talnakh,94.0,RU,1635439172.0,96.0,68.92494297200031,90.92131737371199,-8.54,9.08
373.0,ola,99.0,RU,1635439172.0,92.0,57.97377362021115,151.8273201420007,26.35,4.18
374.0,bathsheba,40.0,BB,1635439172.0,66.0,23.360188043256542,-44.11656382375813,88.41,13.8
375.0,yate,97.0,NC,1635438993.0,89.0,-21.832055170439432,166.83910856074368,59.22,8.01
376.0,kautokeino,100.0,NO,1635439172.0,98.0,69.08874115288458,24.173056851696032,32.81,20.07
377.0,phan thiet,98.0,VN,1635439233.0,90.0,10.585892705169101,108.38846512665981,77.05,5.32
378.0,tambura,84.0,SD,1635439233.0,76.0,6.046773178102086,27.81766921591469,75.83,1.43
379.0,gagnoa,98.0,CI,1635439233.0,94.0,6.277986216082937,-5.9260897035735525,75.29,4.79
380.0,madimba,5.0,TZ,1635439233.0,78.0,-9.840899867312942,41.686021022380515,77.59,8.88
381.0,kampot,88.0,KH,1635439234.0,86.0,11.204669234230565,103.88645728581241,78.85,3.53
382.0,kuusamo,90.0,FI,1635439234.0,100.0,65.21622966636053,28.957783808080308,30.24,11.5
383.0,olinda,40.0,BR,1635439234.0,58.0,-8.600831741944603,-29.640356382561322,85.73,13.8
384.0,hami,65.0,CN,1635439180.0,34.0,41.58100426289562,91.12493795961444,50.63,4.25
385.0,sawtell,44.0,AU,1635439234.0,87.0,-30.449908464338414,153.42849707152862,73.42,10.36
386.0,oksfjord,100.0,NO,1635439235.0,93.0,72.1536648541724,21.633644518334904,32.92,12.1
387.0,general roca,99.0,AR,1635439235.0,20.0,-39.12123674247406,-67.31259122564765,83.62,7.72
388.0,dir,2.0,PK,1635439235.0,51.0,35.0560119815751,72.10056299583954,51.84,5.32
389.0,victor harbor,86.0,AU,1635439236.0,96.0,-36.959578257736155,137.69214923221534,59.09,3.0
390.0,komsomolskiy,97.0,RU,1635439236.0,53.0,77.36217153996594,175.02670192664124,50.72,0.0
391.0,savannah bight,30.0,HN,1635439236.0,70.0,17.300118464242445,-86.22973610460303,91.45,2.95
392.0,ilave,59.0,PE,1635439236.0,36.0,-16.376601316402812,-69.82820449263761,57.49,8.97
393.0,tuensang,3.0,IN,1635439237.0,96.0,25.92318444027302,95.8859395583471,60.85,2.93
394.0,comodoro rivadavia,0.0,AR,1635439237.0,12.0,-45.261608436078035,-65.88423681763223,80.46,19.57
395.0,xuanhua,62.0,CN,1635439237.0,47.0,40.33274409771823,114.96661866631962,48.58,3.38
396.0,altayskoye,14.0,RU,1635439237.0,83.0,51.915332196491704,85.39207913875288,32.67,3.49
397.0,northam,100.0,AU,1635439238.0,96.0,-31.43815505241433,117.71042225460002,59.02,12.19
398.0,puebla,3.0,MX,1635439184.0,50.0,32.66048610364669,-115.32038744402487,71.37,4.32
399.0,hasaki,84.0,JP,1635439238.0,56.0,31.145129202595783,150.04343024533887,54.0,27.4
400.0,praia da vitoria,20.0,PT,1635439238.0,73.0,47.43911510988076,-23.802755588214666,71.85,6.85
401.0,salym,100.0,RU,1635439238.0,97.0,60.99317668827038,71.27070605145315,32.95,10.78
402.0,silleda,100.0,ES,1635439239.0,59.0,42.86473123417102,-8.295369516267556,60.62,9.19
403.0,presidente epitacio,84.0,BR,1635439239.0,49.0,-21.37486096569853,-52.401408585135485,89.17,6.67
404.0,kapit,100.0,MY,1635439239.0,99.0,2.0902274787165,114.9679563683759,73.74,1.32
405.0,samarai,62.0,PG,1635439239.0,81.0,-12.327189159359051,152.95414853155268,81.72,11.1
406.0,poum,13.0,NC,1635439240.0,83.0,-16.462895485996214,159.88904418191782,75.09,7.78
407.0,spanish town,20.0,JM,1635439240.0,70.0,18.128044272008296,-76.93372343571869,87.42,9.22
408.0,coquimbo,75.0,CL,1635439056.0,77.0,-26.78505875312284,-89.03673281944404,60.53,16.11
409.0,ewing,1.0,US,1635439240.0,65.0,40.387274793154745,-74.8402444513506,63.39,0.0
410.0,kamenka,100.0,RU,1635439240.0,83.0,68.23898679536714,43.4200484239999,44.92,12.95
411.0,kokstad,100.0,ZA,1635439241.0,97.0,-30.84906607118682,29.47983423584799,58.73,4.7
412.0,cabra,5.0,PH,1635439241.0,42.0,13.962402792982886,116.96134384788223,74.64,8.01
413.0,hirara,99.0,JP,1635439241.0,67.0,23.355906339359407,125.69659972036527,74.71,18.5
414.0,kahama,87.0,TZ,1635439241.0,30.0,-3.9813496414654423,32.739012661939825,81.75,1.32
415.0,senanga,60.0,ZM,1635439242.0,36.0,-16.163296386768437,23.8492382142951,83.61,2.55
416.0,tarabha,35.0,IN,1635439211.0,78.0,20.639599041553367,83.81257808779338,72.63,1.45
417.0,clyde river,90.0,CA,1635439242.0,100.0,71.87769362545203,-77.17918870135112,34.03,11.5
418.0,ahuimanu,75.0,US,1635439243.0,83.0,36.647369548442754,-151.91229123546958,74.91,3.44
419.0,mana,63.0,GF,1635439243.0,62.0,9.91183511673745,-53.37505532444433,86.56,9.35
420.0,kondagaon,53.0,IN,1635439243.0,86.0,19.831359870028024,81.86454108299637,65.86,5.41
421.0,nanchang,16.0,CN,1635439243.0,68.0,28.95592881685978,115.73333726131699,63.45,4.94
422.0,bugiri,63.0,UG,1635439244.0,89.0,-0.7530227429203507,29.60113038463078,65.41,14.03
423.0,concepcion del uruguay,92.0,AR,1635439244.0,31.0,-32.30453422344272,-58.405551509034524,94.98,11.01
424.0,pacific grove,1.0,US,1635439244.0,82.0,27.126414881073245,-136.93761637627048,68.58,8.01
425.0,ohara,55.0,JP,1635439244.0,61.0,35.120000553740596,140.64376200759102,61.02,18.88
426.0,seybaplaya,28.0,MX,1635439245.0,72.0,20.466168078099045,-91.77055523423044,87.26,9.24
427.0,vila franca do campo,96.0,PT,1635439245.0,78.0,42.29098133446493,-19.746774830455706,70.21,8.05
428.0,morros,4.0,BR,1635439245.0,24.0,-8.574873131320345,-46.310087985253546,96.13,4.81
429.0,wanning,100.0,CN,1635439245.0,94.0,18.54431499131249,112.8826158330026,76.01,8.99
430.0,agadez,31.0,NE,1635439246.0,11.0,16.34721333697948,7.8712395434354505,87.44,8.9
431.0,inuvik,90.0,CA,1635439246.0,97.0,65.13613249480821,-131.46626895800205,27.36,1.14
432.0,puerto escondido,1.0,MX,1635439246.0,62.0,10.799434891774482,-99.37132697056998,86.83,5.75
433.0,balod,20.0,IN,1635439306.0,72.0,20.556276381525862,80.97045960850136,67.78,3.62
434.0,novikovo,98.0,RU,1635439307.0,88.0,47.54297462073336,145.7779811240921,46.56,11.16
435.0,kawalu,100.0,ID,1635439307.0,95.0,-17.572583157233666,105.70511393020143,72.9,2.64
436.0,basco,54.0,PH,1635439307.0,70.0,20.17593247766554,126.19942881325682,78.89,21.61
437.0,kushima,0.0,JP,1635439156.0,77.0,27.194226654796964,135.18616873821844,56.12,8.68
438.0,mosquera,75.0,CO,1635439308.0,59.0,3.9414624066581467,-79.27898951776496,66.29,3.44
439.0,maragogi,31.0,BR,1635439308.0,65.0,-15.980004089178692,-24.82064125751546,82.53,11.3
440.0,broken hill,0.0,AU,1635439308.0,36.0,-32.51017622224365,142.4925767389388,60.51,10.36
441.0,deputatskiy,100.0,RU,1635439308.0,98.0,75.09960481953613,141.86301884563278,3.45,0.43
442.0,pascagoula,1.0,US,1635439309.0,49.0,28.3870506429693,-88.53324707648217,74.05,12.66
443.0,mbanza-ngungu,91.0,CD,1635439309.0,74.0,-5.9793403643306675,15.367848101434163,75.22,4.47
444.0,allada,72.0,BJ,1635439309.0,82.0,6.549329791573612,2.0810883776211995,80.11,4.54
445.0,asau,82.0,TV,1635439309.0,61.0,-14.16057900819159,175.4719566043437,52.75,2.21
446.0,awjilah,92.0,LY,1635439310.0,36.0,29.005809112766116,19.660333870062942,77.43,1.77
447.0,sol-iletsk,91.0,RU,1635439310.0,72.0,50.047215817954765,55.30042328460311,38.26,10.6
448.0,portland,90.0,AU,1635439264.0,91.0,-57.821021261427,128.9697254634636,63.63,4.0
449.0,broome,1.0,AU,1635439310.0,74.0,-15.552508364903275,123.59532951352247,57.63,1.01
450.0,moerai,100.0,PF,1635439310.0,76.0,-21.247930647811998,-152.11247995433163,71.2,5.86
451.0,yei,85.0,SD,1635439311.0,77.0,4.081872101768141,31.090619473840633,71.92,2.35
452.0,port blair,51.0,IN,1635439311.0,81.0,13.06444117160055,88.19302817881055,81.05,7.92
453.0,los llanos de aridane,20.0,ES,1635439311.0,67.0,28.652436472832974,-24.485827966161736,69.55,8.99
454.0,nouakchott,100.0,MR,1635439311.0,60.0,18.240139489474117,-14.981848983302882,85.93,16.53
455.0,sao filipe,100.0,CV,1635439312.0,75.0,15.351915305289324,-25.3862827574861,79.75,10.2
456.0,toma,85.0,BF,1635439312.0,33.0,13.04199602845469,-4.432731621426171,93.24,10.74
457.0,bayanday,69.0,RU,1635439312.0,54.0,53.29699703867652,105.74110681829484,24.19,2.91
458.0,gweta,73.0,BW,1635439313.0,36.0,-19.79636147197384,25.100611735554224,84.24,6.78
459.0,ust-maya,100.0,RU,1635439313.0,94.0,58.73871473634168,134.10652310299452,25.09,4.05
460.0,narsaq,64.0,GL,1635439313.0,69.0,85.16569765256509,-65.45784071282125,32.22,4.14
461.0,talara,0.0,PE,1635439313.0,68.0,-5.006963521925883,-85.33963957591514,72.36,14.97
462.0,ostrovnoy,84.0,RU,1635439314.0,77.0,77.79381153021524,43.510916372364534,24.39,8.43
463.0,caraquet,100.0,CA,1635439313.0,77.0,47.43433995773714,-64.46659731969953,52.34,15.48
464.0,denpasar,20.0,ID,1635439314.0,88.0,-12.280897365529597,115.27291022086212,80.26,6.91
465.0,bowmore,1.0,GB,1635439314.0,58.0,56.132639517255484,-6.868936245412698,71.62,4.0
466.0,mahibadhoo,68.0,MV,1635439314.0,73.0,4.331288722657362,62.55378630238346,82.74,9.62
467.0,saint-georges,40.0,GF,1635439245.0,70.0,3.613575896064688,-52.11278984838465,85.68,19.57
468.0,izyaslav,80.0,UA,1635439315.0,88.0,50.07210792759017,26.56433658649459,48.29,4.54
469.0,dauphin,40.0,CA,1635439315.0,87.0,51.89647855074682,-98.40326499222158,42.94,14.97
470.0,baykit,68.0,RU,1635439315.0,99.0,60.82486247632221,96.7123914638263,6.19,1.12
471.0,chukhloma,58.0,RU,1635439315.0,80.0,58.70247162939697,42.928014827997856,28.18,7.67
472.0,grindavik,75.0,IS,1635439316.0,87.0,58.05179361751476,-22.89998988245887,44.55,16.11
473.0,tautira,82.0,PF,1635439316.0,83.0,-17.38315676783482,-148.06831675314515,77.02,13.76
474.0,bacolod,83.0,PH,1635439316.0,86.0,9.012022845108987,128.29543955349823,77.67,8.37
475.0,opuwo,71.0,NA,1635439316.0,19.0,-17.68484215901117,13.380688454318687,87.39,9.64
476.0,nijar,20.0,ES,1635439317.0,68.0,36.36044537142956,-1.6246142950040223,65.84,5.75
477.0,brownfield,0.0,US,1635439317.0,23.0,33.18352956753942,-102.787605443508,64.31,21.43
478.0,carroll,1.0,US,1635439317.0,69.0,42.03395479251924,-95.43089386749126,63.91,4.0
479.0,sucua,75.0,EC,1635439317.0,69.0,-2.832707723335318,-77.38516221633529,77.74,2.3
480.0,maceio,40.0,BR,1635439318.0,62.0,-12.920935829809935,-31.450343952027765,87.24,12.66
481.0,valparaiso,0.0,CL,1635439318.0,59.0,-31.86790551225399,-78.03013296072842,75.43,5.75
482.0,hualmay,59.0,PE,1635439318.0,69.0,-20.629748765974682,-95.87497736926667,69.58,9.8
483.0,cerrito,67.0,PY,1635439318.0,73.0,-27.492271129851098,-57.52445715061931,63.79,4.14
484.0,ankara,0.0,TR,1635439147.0,44.0,39.57333250909625,32.879023326660615,56.21,5.75
485.0,santa rita,20.0,VE,1635439319.0,48.0,10.875139463820574,-71.08760529169076,88.47,16.11
486.0,atherton,100.0,AU,1635439319.0,85.0,-19.06025913552331,142.6422402565339,59.9,4.0
487.0,nalut,100.0,LY,1635439379.0,39.0,29.345924781942458,10.763486575397906,68.95,6.55
488.0,alofi,4.0,NU,1635439380.0,94.0,-17.71372308185876,-164.53334484179143,66.09,1.14
489.0,sumenep,87.0,ID,1635439380.0,77.0,-6.315773458080173,113.69496466077624,82.89,4.16
490.0,fuxin,100.0,CN,1635439380.0,43.0,42.88835647945902,121.70053504455035,50.74,2.55
491.0,saint-paul,1.0,RE,1635439380.0,92.0,-21.0915641486896,52.9293352969199,77.11,10.4
492.0,chaihe,0.0,CN,1635439381.0,78.0,45.42971706801595,129.4441295895673,34.27,2.04
493.0,dunedin,98.0,NZ,1635439381.0,95.0,-53.80530646858568,178.2480826739964,52.21,3.11
494.0,sim,100.0,RU,1635439382.0,97.0,54.725891320126095,57.4963673920374,34.32,10.96
495.0,khandbari,7.0,NP,1635439382.0,77.0,27.47741970354845,86.81568334033318,60.44,3.42
496.0,qinzhou,99.0,CN,1635439383.0,85.0,21.899724426873348,108.43271718720968,68.41,4.68
497.0,lazaro cardenas,2.0,MX,1635439117.0,70.0,16.11926147123752,-102.93476990788537,83.5,1.25
498.0,husavik,93.0,IS,1635439383.0,88.0,75.64520110328601,-8.386188241318507,37.31,7.9
499.0,kedrovyy,67.0,RU,1635439383.0,57.0,58.935259712792146,79.28773188051576,18.01,4.23
500.0,calvinia,65.0,ZA,1635439384.0,56.0,-32.165639536099505,20.47383224485634,71.42,11.5
501.0,gouyave,40.0,GD,1635439384.0,70.0,12.47256514534277,-62.98638217026311,84.97,19.57
502.0,tyup,68.0,KG,1635439384.0,63.0,43.63676872728206,78.90824098298702,41.54,4.16
503.0,ponerihouen,87.0,NC,1635439384.0,87.0,-21.194706420554184,165.36372146860873,72.84,7.54
504.0,spearfish,1.0,US,1635439121.0,39.0,44.52555566401867,-104.58840676030177,50.88,5.99
505.0,eyl,0.0,SO,1635439385.0,65.0,7.636228839081795,49.735896103106995,78.57,14.58
506.0,labuhan,100.0,ID,1635439385.0,80.0,-10.9375623670974,101.93416099717484,81.5,4.12
507.0,tsirguliina,100.0,EE,1635439385.0,97.0,57.92008123993543,26.202171480147143,54.09,9.08
508.0,bitung,18.0,ID,1635439386.0,83.0,1.127655846545622,125.64418798360049,77.85,3.44
509.0,teguise,40.0,ES,1635439386.0,61.0,30.461856899168822,-13.887071356203847,73.62,18.41
510.0,aguilas,100.0,ES,1635439386.0,69.0,36.563621587250196,-1.3157862938019207,72.21,3.56
511.0,banjar,100.0,ID,1635439386.0,90.0,-9.36366609172154,106.73328028440602,80.46,3.2
512.0,kenai,90.0,US,1635439387.0,93.0,63.276426542726256,-152.61419809753738,31.14,17.27
513.0,kjollefjord,40.0,NO,1635439387.0,80.0,71.71786473087073,27.41244268030033,30.25,24.16
514.0,sibolga,100.0,ID,1635439387.0,82.0,1.04169921327005,96.11503495653642,78.58,2.57
515.0,nuuk,40.0,GL,1635439387.0,69.0,62.81947328441154,-51.247378339801685,30.81,9.22
516.0,llanelli,75.0,GB,1635439388.0,92.0,51.848301927459005,-4.120401354940697,58.95,21.85
517.0,tricase,0.0,IT,1635439388.0,72.0,39.94195787093835,18.814960888354506,64.33,3.44
518.0,bang racham,89.0,TH,1635439388.0,91.0,14.926685123259404,100.33971207350493,75.94,2.64
519.0,marsabit,36.0,KE,1635439388.0,32.0,2.359641874464785,37.24268055078835,76.69,13.94
520.0,izumo,12.0,JP,1635439389.0,70.0,36.64641698292793,132.2893409197257,60.75,9.4
521.0,prince george,1.0,CA,1635439331.0,74.0,54.661603067779595,-122.53470346798346,32.61,3.44
522.0,porkhov,87.0,RU,1635439389.0,91.0,57.908919619041,29.697473173401875,48.09,5.19
523.0,aketi,67.0,CD,1635439383.0,96.0,2.9985241460022394,22.96313572743034,72.19,2.84
524.0,ozernovskiy,100.0,RU,1635439390.0,86.0,51.27665571647847,157.17995343373707,42.58,5.75
525.0,visby,0.0,SE,1635439390.0,87.0,58.24930487908955,19.33588341216978,52.02,12.66
526.0,batemans bay,89.0,AU,1635439390.0,63.0,-38.96203654696085,154.2002607283551,61.11,6.2
527.0,houma,1.0,US,1635439390.0,45.0,26.932882973621943,-90.90837003924037,73.99,17.27
528.0,albion,40.0,US,1635439391.0,77.0,42.26855360595843,-84.94319815267363,60.19,13.8
529.0,coripata,80.0,BO,1635439391.0,69.0,-16.180240002497015,-67.40304701189139,85.01,4.47
530.0,pires do rio,34.0,BR,1635439391.0,35.0,-17.328064647163686,-48.141278341893326,89.6,7.72
531.0,nanakuli,90.0,US,1635439391.0,94.0,19.526965466075154,-159.8588289586458,75.15,3.44
532.0,palmer,75.0,US,1635439327.0,59.0,56.2735500089791,-145.6740275970915,54.73,3.0
533.0,juba,92.0,SD,1635439392.0,46.0,5.849702125052133,31.428810003600603,83.3,0.89
534.0,ossora,100.0,RU,1635439392.0,95.0,59.33147961369869,163.99994748008754,25.2,5.99
535.0,tandil,0.0,AR,1635439392.0,27.0,-36.41270425996922,-58.82225002640824,89.44,17.27
536.0,areosa,100.0,PT,1635439393.0,86.0,41.514328692709256,-9.283944601412628,65.32,18.48
537.0,yulara,1.0,AU,1635439393.0,13.0,-21.059777568362108,128.99506728067047,75.04,12.66
538.0,turayf,0.0,SA,1635439393.0,32.0,33.171265631507794,39.18100855494623,70.05,6.91
539.0,santa isabel do rio negro,99.0,BR,1635439393.0,66.0,1.1837255346042355,-64.57845112540524,83.03,2.1
540.0,tambopata,20.0,PE,1635439394.0,46.0,-12.714018255072972,-70.11439776094832,93.09,3.44
541.0,korostyshiv,100.0,UA,1635439394.0,79.0,50.46151596755689,29.234513016194313,51.53,5.7
542.0,ahipara,21.0,NZ,1635439394.0,92.0,-31.723614519951077,170.74550730631557,57.65,5.01
543.0,bukama,60.0,CD,1635439394.0,53.0,-8.818114784055751,26.737273416698258,80.74,2.51
544.0,yarmouth,90.0,CA,1635439455.0,83.0,41.616226187957864,-67.15545805096457,52.97,24.0
545.0,jiexiu,29.0,CN,1635439455.0,64.0,37.4119884251093,111.83885982989017,52.93,4.9
546.0,bandarbeyla,2.0,SO,1635439455.0,67.0,8.284345027032558,57.97161569731716,78.49,8.97
547.0,kozulka,69.0,RU,1635439456.0,67.0,55.92559475804967,91.14609055915878,43.09,2.68
548.0,bollnas,100.0,SE,1635439456.0,98.0,62.18540073376451,15.809996966279499,55.13,11.61
549.0,bac lieu,98.0,VN,1635439456.0,84.0,7.9943123207276585,107.09734131519019,79.93,8.9
550.0,alugan,18.0,PH,1635439456.0,82.0,14.616472981057044,128.2909607318955,79.41,5.86
